<?xml version="1.0" encoding="UTF-8"?><NewDataSet><hotspot><AP_ID>BQ050001</AP_ID><HOTSPOT_NAME>江子翠站</HOTSPOT_NAME><AREA>捷運站</AREA><ADDRESS>新北市板橋區文化路二段296號(付費區內5,6號出口往1,2號出口走道中央上方位置)</ADDRESS><HOTSPOT_TYPE>Taipei Free免費無線上網熱點(室內)</HOTSPOT_TYPE><LNG>121.472311</LNG><LAT>25.02966</LAT><STATUS>0</STATUS><PICURL>http://free-wifi.taipei/TPE/OpenData.aspx?id=BQ050001</PICURL><FLOWURL>http://free-wifi.taipei/TPE/OpenData2.aspx?id=BQ050001</FLOWURL><CFLOWURL>http://free-wifi.taipei/TPE/OpenDataCFlow.aspx?id=BQ050001</CFLOWURL></hotspot><hotspot><AP_ID>BQ050002</AP_ID><HOTSPOT_NAME>江子翠站</HOTSPOT_NAME><AREA>捷運站</AREA><ADDRESS>新北市板橋區文化路二段296號B1(B1非付費區近詢問處)</ADDRESS><HOTSPOT_TYPE>Taipei Free免費無線上網熱點(室內)</HOTSPOT_TYPE><LNG>121.472311</LNG><LAT>25.02964</LAT><STATUS>0</STATUS><PICURL>http://free-wifi.taipei/TPE/OpenData.aspx?id=BQ050002</PICURL><FLOWURL>http://free-wifi.taipei/TPE/OpenData2.aspx?id=BQ050002</FLOWURL><CFLOWURL>http://free-wifi.taipei/TPE/OpenDataCFlow.aspx?id=BQ050002</CFLOWURL></hotspot><hotspot><AP_ID>BQ050003</AP_ID><HOTSPOT_NAME>江子翠站</HOTSPOT_NAME><AREA>捷運站</AREA><ADDRESS>新北市板橋區文化路二段296號B1(一,二號出口走到交接點)</ADDRESS><HOTSPOT_TYPE>Taipei Free免費無線上網熱點(室內)</HOTSPOT_TYPE><LNG>121.472311</LNG><LAT>25.02963</LAT><STATUS>0</STATUS><PICURL>http://free-wifi.taipei/TPE/OpenData.aspx?id=BQ050003</PICURL><FLOWURL>http://free-wifi.taipei/TPE/OpenData2.aspx?id=BQ050003</FLOWURL><CFLOWURL>http://free-wifi.taipei/TPE/OpenDataCFlow.aspx?id=BQ050003</CFLOWURL></hotspot><hotspot><AP_ID>BQ050004</AP_ID><HOTSPOT_NAME>江子翠站</HOTSPOT_NAME><AREA>捷運站</AREA><ADDRESS>新北市板橋區文化路二段296號B1(三號出口B1電扶梯前)</ADDRESS><HOTSPOT_TYPE>Taipei Free免費無線上網熱點(室內)</HOTSPOT_TYPE><LNG>121.472311</LNG><LAT>25.02962</LAT><STATUS>0</STATUS><PICURL>http://free-wifi.taipei/TPE/OpenData.aspx?id=BQ050004</PICURL><FLOWURL>http://free-wifi.taipei/TPE/OpenData2.aspx?id=BQ050004</FLOWURL><CFLOWURL>http://free-wifi.taipei/TPE/OpenDataCFlow.aspx?id=BQ050004</CFLOWURL></hotspot><hotspot><AP_ID>BQ050005</AP_ID><HOTSPOT_NAME>江子翠站</HOTSPOT_NAME><AREA>捷運站</AREA><ADDRESS>新北市板橋區文化路二段296號B1(五號出口B1電扶梯前)</ADDRESS><HOTSPOT_TYPE>Taipei Free免費無線上網熱點(室內)</HOTSPOT_TYPE><LNG>121.472311</LNG><LAT>25.02967</LAT><STATUS>0</STATUS><PICURL>http://free-wifi.taipei/TPE/OpenData.aspx?id=BQ050005</PICURL><FLOWURL>http://free-wifi.taipei/TPE/OpenData2.aspx?id=BQ050005</FLOWURL><CFLOWURL>http://free-wifi.taipei/TPE/OpenDataCFlow.aspx?id=BQ050005</CFLOWURL></hotspot><hotspot><AP_ID>BQ050007</AP_ID><HOTSPOT_NAME>江子翠站</HOTSPOT_NAME><AREA>捷運站</AREA><ADDRESS>新北市板橋區文化路二段296號B1(月台層北側)</ADDRESS><HOTSPOT_TYPE>Taipei Free免費無線上網熱點(室內)</HOTSPOT_TYPE><LNG>121.472312</LNG><LAT>25.02967</LAT><STATUS>0</STATUS><PICURL>http://free-wifi.taipei/TPE/OpenData.aspx?id=BQ050007</PICURL><FLOWURL>http://free-wifi.taipei/TPE/OpenData2.aspx?id=BQ050007</FLOWURL><CFLOWURL>http://free-wifi.taipei/TPE/OpenDataCFlow.aspx?id=BQ050007</CFLOWURL></hotspot><hotspot><AP_ID>BQ050008</AP_ID><HOTSPOT_NAME>江子翠站</HOTSPOT_NAME><AREA>捷運站</AREA><ADDRESS>新北市板橋區文化路二段296號B1(月台層南側)</ADDRESS><HOTSPOT_TYPE>Taipei Free免費無線上網熱點(室內)</HOTSPOT_TYPE><LNG>121.472313</LNG><LAT>25.02967</LAT><STATUS>0</STATUS><PICURL>http://free-wifi.taipei/TPE/OpenData.aspx?id=BQ050008</PICURL><FLOWURL>http://free-wifi.taipei/TPE/OpenData2.aspx?id=BQ050008</FLOWURL><CFLOWURL>http://free-wifi.taipei/TPE/OpenDataCFlow.aspx?id=BQ050008</CFLOWURL></hotspot><hotspot><AP_ID>BQ050009</AP_ID><HOTSPOT_NAME>江子翠站</HOTSPOT_NAME><AREA>捷運站</AREA><ADDRESS>新北市板橋區文化路二段296號B1(四號出口B1電扶梯前)</ADDRESS><HOTSPOT_TYPE>Taipei Free免費無線上網熱點(室內)</HOTSPOT_TYPE><LNG>121.472311</LNG><LAT>25.02965</LAT><STATUS>0</STATUS><PICURL>http://free-wifi.taipei/TPE/OpenData.aspx?id=BQ050009</PICURL><FLOWURL>http://free-wifi.taipei/TPE/OpenData2.aspx?id=BQ050009</FLOWURL><CFLOWURL>http://free-wifi.taipei/TPE/OpenDataCFlow.aspx?id=BQ050009</CFLOWURL></hotspot><hotspot><AP_ID>BQ050010</AP_ID><HOTSPOT_NAME>新埔站</HOTSPOT_NAME><AREA>捷運站</AREA><ADDRESS>新北市板橋區民生路三段2號B1(B1一號出口轉角處)</ADDRESS><HOTSPOT_TYPE>Taipei Free免費無線上網熱點(室內)</HOTSPOT_TYPE><LNG>121.468358</LNG><LAT>25.023746</LAT><STATUS>0</STATUS><PICURL>http://free-wifi.taipei/TPE/OpenData.aspx?id=BQ050010</PICURL><FLOWURL>http://free-wifi.taipei/TPE/OpenData2.aspx?id=BQ050010</FLOWURL><CFLOWURL>http://free-wifi.taipei/TPE/OpenDataCFlow.aspx?id=BQ050010</CFLOWURL></hotspot><hotspot><AP_ID>BQ050011</AP_ID><HOTSPOT_NAME>新埔站</HOTSPOT_NAME><AREA>捷運站</AREA><ADDRESS>新北市板橋區民生路三段2號B1(非付費區2、3號出口方向走道，上網桌旁)</ADDRESS><HOTSPOT_TYPE>Taipei Free免費無線上網熱點(室內)</HOTSPOT_TYPE><LNG>121.468357</LNG><LAT>25.023746</LAT><STATUS>0</STATUS><PICURL>http://free-wifi.taipei/TPE/OpenData.aspx?id=BQ050011</PICURL><FLOWURL>http://free-wifi.taipei/TPE/OpenData2.aspx?id=BQ050011</FLOWURL><CFLOWURL>http://free-wifi.taipei/TPE/OpenDataCFlow.aspx?id=BQ050011</CFLOWURL></hotspot><hotspot><AP_ID>BQ050012</AP_ID><HOTSPOT_NAME>新埔站</HOTSPOT_NAME><AREA>捷運站</AREA><ADDRESS>新北市板橋區民生路三段2號B1(詢問處前)</ADDRESS><HOTSPOT_TYPE>Taipei Free免費無線上網熱點(室內)</HOTSPOT_TYPE><LNG>121.468357</LNG><LAT>25.023745</LAT><STATUS>0</STATUS><PICURL>http://free-wifi.taipei/TPE/OpenData.aspx?id=BQ050012</PICURL><FLOWURL>http://free-wifi.taipei/TPE/OpenData2.aspx?id=BQ050012</FLOWURL><CFLOWURL>http://free-wifi.taipei/TPE/OpenDataCFlow.aspx?id=BQ050012</CFLOWURL></hotspot><hotspot><AP_ID>BQ050013</AP_ID><HOTSPOT_NAME>新埔站</HOTSPOT_NAME><AREA>捷運站</AREA><ADDRESS>新北市板橋區民生路三段2號B1(B1層5號出口走道內)</ADDRESS><HOTSPOT_TYPE>Taipei Free免費無線上網熱點(室內)</HOTSPOT_TYPE><LNG>121.468358</LNG><LAT>25.023745</LAT><STATUS>0</STATUS><PICURL>http://free-wifi.taipei/TPE/OpenData.aspx?id=BQ050013</PICURL><FLOWURL>http://free-wifi.taipei/TPE/OpenData2.aspx?id=BQ050013</FLOWURL><CFLOWURL>http://free-wifi.taipei/TPE/OpenDataCFlow.aspx?id=BQ050013</CFLOWURL></hotspot><hotspot><AP_ID>BQ050014</AP_ID><HOTSPOT_NAME>新埔站</HOTSPOT_NAME><AREA>捷運站</AREA><ADDRESS>新北市板橋區民生路三段2號B1(月台層北邊)</ADDRESS><HOTSPOT_TYPE>Taipei Free免費無線上網熱點(室內)</HOTSPOT_TYPE><LNG>121.468358</LNG><LAT>25.023744</LAT><STATUS>0</STATUS><PICURL>http://free-wifi.taipei/TPE/OpenData.aspx?id=BQ050014</PICURL><FLOWURL>http://free-wifi.taipei/TPE/OpenData2.aspx?id=BQ050014</FLOWURL><CFLOWURL>http://free-wifi.taipei/TPE/OpenDataCFlow.aspx?id=BQ050014</CFLOWURL></hotspot><hotspot><AP_ID>BQ050015</AP_ID><HOTSPOT_NAME>新埔站</HOTSPOT_NAME><AREA>捷運站</AREA><ADDRESS>新北市板橋區民生路三段2號B1(月台層南邊)</ADDRESS><HOTSPOT_TYPE>Taipei Free免費無線上網熱點(室內)</HOTSPOT_TYPE><LNG>121.468357</LNG><LAT>25.023744</LAT><STATUS>0</STATUS><PICURL>http://free-wifi.taipei/TPE/OpenData.aspx?id=BQ050015</PICURL><FLOWURL>http://free-wifi.taipei/TPE/OpenData2.aspx?id=BQ050015</FLOWURL><CFLOWURL>http://free-wifi.taipei/TPE/OpenDataCFlow.aspx?id=BQ050015</CFLOWURL></hotspot><hotspot><AP_ID>BQ050016</AP_ID><HOTSPOT_NAME>新埔站</HOTSPOT_NAME><AREA>捷運站</AREA><ADDRESS>新北市板橋區民生路三段2號B1(付費區B1走道近123號出口)</ADDRESS><HOTSPOT_TYPE>Taipei Free免費無線上網熱點(室內)</HOTSPOT_TYPE><LNG>121.468356</LNG><LAT>25.023746</LAT><STATUS>0</STATUS><PICURL>http://free-wifi.taipei/TPE/OpenData.aspx?id=BQ050016</PICURL><FLOWURL>http://free-wifi.taipei/TPE/OpenData2.aspx?id=BQ050016</FLOWURL><CFLOWURL>http://free-wifi.taipei/TPE/OpenDataCFlow.aspx?id=BQ050016</CFLOWURL></hotspot><hotspot><AP_ID>BQ050017</AP_ID><HOTSPOT_NAME>新埔站</HOTSPOT_NAME><AREA>捷運站</AREA><ADDRESS>新北市板橋區民生路三段2號B1(非付費區B1走道近詢問處)</ADDRESS><HOTSPOT_TYPE>Taipei Free免費無線上網熱點(室內)</HOTSPOT_TYPE><LNG>121.468356</LNG><LAT>25.023745</LAT><STATUS>0</STATUS><PICURL>http://free-wifi.taipei/TPE/OpenData.aspx?id=BQ050017</PICURL><FLOWURL>http://free-wifi.taipei/TPE/OpenData2.aspx?id=BQ050017</FLOWURL><CFLOWURL>http://free-wifi.taipei/TPE/OpenDataCFlow.aspx?id=BQ050017</CFLOWURL></hotspot><hotspot><AP_ID>BQ050018</AP_ID><HOTSPOT_NAME>府中站</HOTSPOT_NAME><AREA>捷運站</AREA><ADDRESS>新北市板橋區縣民大道一段193號B1(B5月台層，靠(車行方向永寧)月台邊上方)</ADDRESS><HOTSPOT_TYPE>Taipei Free免費無線上網熱點(室內)</HOTSPOT_TYPE><LNG>121.4594</LNG><LAT>25.00863</LAT><STATUS>0</STATUS><PICURL>http://free-wifi.taipei/TPE/OpenData.aspx?id=BQ050018</PICURL><FLOWURL>http://free-wifi.taipei/TPE/OpenData2.aspx?id=BQ050018</FLOWURL><CFLOWURL>http://free-wifi.taipei/TPE/OpenDataCFlow.aspx?id=BQ050018</CFLOWURL></hotspot><hotspot><AP_ID>BQ050019</AP_ID><HOTSPOT_NAME>亞東醫院站</HOTSPOT_NAME><AREA>捷運站</AREA><ADDRESS>新北市板橋區南雅南路二段17號B1(付費區內詢問處前)</ADDRESS><HOTSPOT_TYPE>Taipei Free免費無線上網熱點(室內)</HOTSPOT_TYPE><LNG>121.4524</LNG><LAT>24.99881</LAT><STATUS>0</STATUS><PICURL>http://free-wifi.taipei/TPE/OpenData.aspx?id=BQ050019</PICURL><FLOWURL>http://free-wifi.taipei/TPE/OpenData2.aspx?id=BQ050019</FLOWURL><CFLOWURL>http://free-wifi.taipei/TPE/OpenDataCFlow.aspx?id=BQ050019</CFLOWURL></hotspot><hotspot><AP_ID>BQ050020</AP_ID><HOTSPOT_NAME>亞東醫院站</HOTSPOT_NAME><AREA>捷運站</AREA><ADDRESS>新北市板橋區南雅南路二段17號B1(月台層站體南側，車行方向往南港展覽館，往1、2、3號出口樓梯前)</ADDRESS><HOTSPOT_TYPE>Taipei Free免費無線上網熱點(室內)</HOTSPOT_TYPE><LNG>121.4523</LNG><LAT>24.99813</LAT><STATUS>0</STATUS><PICURL>http://free-wifi.taipei/TPE/OpenData.aspx?id=BQ050020</PICURL><FLOWURL>http://free-wifi.taipei/TPE/OpenData2.aspx?id=BQ050020</FLOWURL><CFLOWURL>http://free-wifi.taipei/TPE/OpenDataCFlow.aspx?id=BQ050020</CFLOWURL></hotspot><hotspot><AP_ID>BQ050021</AP_ID><HOTSPOT_NAME>亞東醫院站</HOTSPOT_NAME><AREA>捷運站</AREA><ADDRESS>新北市板橋區南雅南路二段17號B1(月台層站體南側，車行方向往永寧，告示板前)</ADDRESS><HOTSPOT_TYPE>Taipei Free免費無線上網熱點(室內)</HOTSPOT_TYPE><LNG>121.452</LNG><LAT>24.99783</LAT><STATUS>0</STATUS><PICURL>http://free-wifi.taipei/TPE/OpenData.aspx?id=BQ050021</PICURL><FLOWURL>http://free-wifi.taipei/TPE/OpenData2.aspx?id=BQ050021</FLOWURL><CFLOWURL>http://free-wifi.taipei/TPE/OpenDataCFlow.aspx?id=BQ050021</CFLOWURL></hotspot><hotspot><AP_ID>BQ050022</AP_ID><HOTSPOT_NAME>板橋站</HOTSPOT_NAME><AREA>捷運站</AREA><ADDRESS>新北市板橋區站前路5號B1(詢問處層站體北側出入口往南第二根柱子靠手扶梯旁上方)</ADDRESS><HOTSPOT_TYPE>Taipei Free免費無線上網熱點(室內)</HOTSPOT_TYPE><LNG>121.4631</LNG><LAT>25.01505</LAT><STATUS>0</STATUS><PICURL>http://free-wifi.taipei/TPE/OpenData.aspx?id=BQ050022</PICURL><FLOWURL>http://free-wifi.taipei/TPE/OpenData2.aspx?id=BQ050022</FLOWURL><CFLOWURL>http://free-wifi.taipei/TPE/OpenDataCFlow.aspx?id=BQ050022</CFLOWURL></hotspot><hotspot><AP_ID>BQ050023</AP_ID><HOTSPOT_NAME>板橋站</HOTSPOT_NAME><AREA>捷運站</AREA><ADDRESS>新北市板橋區站前路5號B1(詢問處層站體南側詢問處後方靠手扶梯及電梯中間上方)</ADDRESS><HOTSPOT_TYPE>Taipei Free免費無線上網熱點(室內)</HOTSPOT_TYPE><LNG>121.4628</LNG><LAT>25.01454</LAT><STATUS>0</STATUS><PICURL>http://free-wifi.taipei/TPE/OpenData.aspx?id=BQ050023</PICURL><FLOWURL>http://free-wifi.taipei/TPE/OpenData2.aspx?id=BQ050023</FLOWURL><CFLOWURL>http://free-wifi.taipei/TPE/OpenDataCFlow.aspx?id=BQ050023</CFLOWURL></hotspot><hotspot><AP_ID>BQ050024</AP_ID><HOTSPOT_NAME>板橋站</HOTSPOT_NAME><AREA>捷運站</AREA><ADDRESS>新北市板橋區站前路5號B1(川堂層站體北側(B09電信室)前上方)</ADDRESS><HOTSPOT_TYPE>Taipei Free免費無線上網熱點(室內)</HOTSPOT_TYPE><LNG>121.463</LNG><LAT>25.01434</LAT><STATUS>0</STATUS><PICURL>http://free-wifi.taipei/TPE/OpenData.aspx?id=BQ050024</PICURL><FLOWURL>http://free-wifi.taipei/TPE/OpenData2.aspx?id=BQ050024</FLOWURL><CFLOWURL>http://free-wifi.taipei/TPE/OpenDataCFlow.aspx?id=BQ050024</CFLOWURL></hotspot><hotspot><AP_ID>BQ050025</AP_ID><HOTSPOT_NAME>板橋站</HOTSPOT_NAME><AREA>捷運站</AREA><ADDRESS>新北市板橋區站前路5號B1(川堂層站體北側過高鐵、台鐵中央走道第二根及第三根柱子中間上方)</ADDRESS><HOTSPOT_TYPE>Taipei Free免費無線上網熱點(室內)</HOTSPOT_TYPE><LNG>121.4626</LNG><LAT>25.01453</LAT><STATUS>0</STATUS><PICURL>http://free-wifi.taipei/TPE/OpenData.aspx?id=BQ050025</PICURL><FLOWURL>http://free-wifi.taipei/TPE/OpenData2.aspx?id=BQ050025</FLOWURL><CFLOWURL>http://free-wifi.taipei/TPE/OpenDataCFlow.aspx?id=BQ050025</CFLOWURL></hotspot><hotspot><AP_ID>BQ050026</AP_ID><HOTSPOT_NAME>板橋站</HOTSPOT_NAME><AREA>捷運站</AREA><ADDRESS>新北市板橋區站前路5號B1(川堂層站體南側往北過手扶梯，第一根與第二根柱子中間上方)</ADDRESS><HOTSPOT_TYPE>Taipei Free免費無線上網熱點(室內)</HOTSPOT_TYPE><LNG>121.4629</LNG><LAT>25.01499</LAT><STATUS>0</STATUS><PICURL>http://free-wifi.taipei/TPE/OpenData.aspx?id=BQ050026</PICURL><FLOWURL>http://free-wifi.taipei/TPE/OpenData2.aspx?id=BQ050026</FLOWURL><CFLOWURL>http://free-wifi.taipei/TPE/OpenDataCFlow.aspx?id=BQ050026</CFLOWURL></hotspot><hotspot><AP_ID>BQ050027</AP_ID><HOTSPOT_NAME>板橋站</HOTSPOT_NAME><AREA>捷運站</AREA><ADDRESS>新北市板橋區站前路5號B1(川堂層站體南側往北過手扶梯，第四根與第五根柱子中間上方)</ADDRESS><HOTSPOT_TYPE>Taipei Free免費無線上網熱點(室內)</HOTSPOT_TYPE><LNG>121.4626</LNG><LAT>25.01462</LAT><STATUS>0</STATUS><PICURL>http://free-wifi.taipei/TPE/OpenData.aspx?id=BQ050027</PICURL><FLOWURL>http://free-wifi.taipei/TPE/OpenData2.aspx?id=BQ050027</FLOWURL><CFLOWURL>http://free-wifi.taipei/TPE/OpenDataCFlow.aspx?id=BQ050027</CFLOWURL></hotspot><hotspot><AP_ID>BQ050028</AP_ID><HOTSPOT_NAME>板橋站</HOTSPOT_NAME><AREA>捷運站</AREA><ADDRESS>新北市板橋區站前路5號B1(月台層站體北側，靠(車行方向永寧)，由北往南第四根與第五根柱子上方)</ADDRESS><HOTSPOT_TYPE>Taipei Free免費無線上網熱點(室內)</HOTSPOT_TYPE><LNG>121.4629</LNG><LAT>25.01469</LAT><STATUS>0</STATUS><PICURL>http://free-wifi.taipei/TPE/OpenData.aspx?id=BQ050028</PICURL><FLOWURL>http://free-wifi.taipei/TPE/OpenData2.aspx?id=BQ050028</FLOWURL><CFLOWURL>http://free-wifi.taipei/TPE/OpenDataCFlow.aspx?id=BQ050028</CFLOWURL></hotspot><hotspot><AP_ID>BQ050029</AP_ID><HOTSPOT_NAME>板橋站</HOTSPOT_NAME><AREA>捷運站</AREA><ADDRESS>新北市板橋區站前路5號B1(月台層站體南側，靠(車行方向台北車站、昆陽)，由南往北第三根與第四根柱子上方)</ADDRESS><HOTSPOT_TYPE>Taipei Free免費無線上網熱點(室內)</HOTSPOT_TYPE><LNG>121.4629</LNG><LAT>25.01439</LAT><STATUS>0</STATUS><PICURL>http://free-wifi.taipei/TPE/OpenData.aspx?id=BQ050029</PICURL><FLOWURL>http://free-wifi.taipei/TPE/OpenData2.aspx?id=BQ050029</FLOWURL><CFLOWURL>http://free-wifi.taipei/TPE/OpenDataCFlow.aspx?id=BQ050029</CFLOWURL></hotspot><hotspot><AP_ID>BQ050030</AP_ID><HOTSPOT_NAME>府中站</HOTSPOT_NAME><AREA>捷運站</AREA><ADDRESS>新北市板橋區縣民大道一段193號B1(B3月台層，靠(車行方向台北車站、昆陽)月台邊上方)</ADDRESS><HOTSPOT_TYPE>Taipei Free免費無線上網熱點(室內)</HOTSPOT_TYPE><LNG>121.4592</LNG><LAT>25.00876</LAT><STATUS>0</STATUS><PICURL>http://free-wifi.taipei/TPE/OpenData.aspx?id=BQ050030</PICURL><FLOWURL>http://free-wifi.taipei/TPE/OpenData2.aspx?id=BQ050030</FLOWURL><CFLOWURL>http://free-wifi.taipei/TPE/OpenDataCFlow.aspx?id=BQ050030</CFLOWURL></hotspot><hotspot><AP_ID>BQ050031</AP_ID><HOTSPOT_NAME>府中站</HOTSPOT_NAME><AREA>捷運站</AREA><ADDRESS>新北市板橋區縣民大道一段193號B1(B3月台層東側(詢問處層上B3月台層中央廣場)上方)</ADDRESS><HOTSPOT_TYPE>Taipei Free免費無線上網熱點(室內)</HOTSPOT_TYPE><LNG>121.459</LNG><LAT>25.0084</LAT><STATUS>0</STATUS><PICURL>http://free-wifi.taipei/TPE/OpenData.aspx?id=BQ050031</PICURL><FLOWURL>http://free-wifi.taipei/TPE/OpenData2.aspx?id=BQ050031</FLOWURL><CFLOWURL>http://free-wifi.taipei/TPE/OpenDataCFlow.aspx?id=BQ050031</CFLOWURL></hotspot><hotspot><AP_ID>BQ050032</AP_ID><HOTSPOT_NAME>府中站</HOTSPOT_NAME><AREA>捷運站</AREA><ADDRESS>新北市板橋區縣民大道一段193號B1(詢問處層由電梯門口往前數第三根及第四根柱子上方)</ADDRESS><HOTSPOT_TYPE>Taipei Free免費無線上網熱點(室內)</HOTSPOT_TYPE><LNG>121.4594</LNG><LAT>25.00885</LAT><STATUS>0</STATUS><PICURL>http://free-wifi.taipei/TPE/OpenData.aspx?id=BQ050032</PICURL><FLOWURL>http://free-wifi.taipei/TPE/OpenData2.aspx?id=BQ050032</FLOWURL><CFLOWURL>http://free-wifi.taipei/TPE/OpenDataCFlow.aspx?id=BQ050032</CFLOWURL></hotspot><hotspot><AP_ID>BQ050033</AP_ID><HOTSPOT_NAME>板橋站</HOTSPOT_NAME><AREA>捷運站</AREA><ADDRESS>新北市板橋區站前路5號B1(1、2號出口中間)</ADDRESS><HOTSPOT_TYPE>Taipei Free免費無線上網熱點(室內)</HOTSPOT_TYPE><LNG>121.4629</LNG><LAT>25.01425</LAT><STATUS>0</STATUS><PICURL>http://free-wifi.taipei/TPE/OpenData.aspx?id=BQ050033</PICURL><FLOWURL>http://free-wifi.taipei/TPE/OpenData2.aspx?id=BQ050033</FLOWURL><CFLOWURL>http://free-wifi.taipei/TPE/OpenDataCFlow.aspx?id=BQ050033</CFLOWURL></hotspot><hotspot><AP_ID>BT020001</AP_ID><HOTSPOT_NAME>北投區行政中心</HOTSPOT_NAME><AREA>區行政中心</AREA><ADDRESS>臺北市北投區新市街30號1樓(入口右側走廊上方天花板)</ADDRESS><HOTSPOT_TYPE>Taipei Free免費無線上網熱點(室內)</HOTSPOT_TYPE><LNG>121.502693</LNG><LAT>25.132671</LAT><STATUS>0</STATUS><PICURL>http://free-wifi.taipei/TPE/OpenData.aspx?id=BT020001</PICURL><FLOWURL>http://free-wifi.taipei/TPE/OpenData2.aspx?id=BT020001</FLOWURL><CFLOWURL>http://free-wifi.taipei/TPE/OpenDataCFlow.aspx?id=BT020001</CFLOWURL></hotspot><hotspot><AP_ID>BT020002</AP_ID><HOTSPOT_NAME>北投區行政中心</HOTSPOT_NAME><AREA>區行政中心</AREA><ADDRESS>臺北市北投區新市街30號3樓(戶政事務所綜合受理1號櫃台前上方天花板)</ADDRESS><HOTSPOT_TYPE>Taipei Free免費無線上網熱點(室內)</HOTSPOT_TYPE><LNG>121.502695</LNG><LAT>25.132671</LAT><STATUS>0</STATUS><PICURL>http://free-wifi.taipei/TPE/OpenData.aspx?id=BT020002</PICURL><FLOWURL>http://free-wifi.taipei/TPE/OpenData2.aspx?id=BT020002</FLOWURL><CFLOWURL>http://free-wifi.taipei/TPE/OpenDataCFlow.aspx?id=BT020002</CFLOWURL></hotspot><hotspot><AP_ID>BT020003</AP_ID><HOTSPOT_NAME>北投區行政中心</HOTSPOT_NAME><AREA>區行政中心</AREA><ADDRESS>臺北市北投區新市街30號3樓(志工服務台上方)</ADDRESS><HOTSPOT_TYPE>Taipei Free免費無線上網熱點(室內)</HOTSPOT_TYPE><LNG>121.502691</LNG><LAT>25.132671</LAT><STATUS>0</STATUS><PICURL>http://free-wifi.taipei/TPE/OpenData.aspx?id=BT020003</PICURL><FLOWURL>http://free-wifi.taipei/TPE/OpenData2.aspx?id=BT020003</FLOWURL><CFLOWURL>http://free-wifi.taipei/TPE/OpenDataCFlow.aspx?id=BT020003</CFLOWURL></hotspot><hotspot><AP_ID>BT020004</AP_ID><HOTSPOT_NAME>北投區行政中心</HOTSPOT_NAME><AREA>區行政中心</AREA><ADDRESS>臺北市北投區新市街30號4樓(好便利11號櫃檯前天花板)</ADDRESS><HOTSPOT_TYPE>Taipei Free免費無線上網熱點(室內)</HOTSPOT_TYPE><LNG>121.502697</LNG><LAT>25.132671</LAT><STATUS>0</STATUS><PICURL>http://free-wifi.taipei/TPE/OpenData.aspx?id=BT020004</PICURL><FLOWURL>http://free-wifi.taipei/TPE/OpenData2.aspx?id=BT020004</FLOWURL><CFLOWURL>http://free-wifi.taipei/TPE/OpenDataCFlow.aspx?id=BT020004</CFLOWURL></hotspot><hotspot><AP_ID>BT020005</AP_ID><HOTSPOT_NAME>北投區行政中心</HOTSPOT_NAME><AREA>區行政中心</AREA><ADDRESS>臺北市北投區新市街30號4樓(調解委員會門前天花板)</ADDRESS><HOTSPOT_TYPE>Taipei Free免費無線上網熱點(室內)</HOTSPOT_TYPE><LNG>121.502699</LNG><LAT>25.132671</LAT><STATUS>0</STATUS><PICURL>http://free-wifi.taipei/TPE/OpenData.aspx?id=BT020005</PICURL><FLOWURL>http://free-wifi.taipei/TPE/OpenData2.aspx?id=BT020005</FLOWURL><CFLOWURL>http://free-wifi.taipei/TPE/OpenDataCFlow.aspx?id=BT020005</CFLOWURL></hotspot><hotspot><AP_ID>BT020006</AP_ID><HOTSPOT_NAME>北投區行政中心</HOTSPOT_NAME><AREA>區行政中心</AREA><ADDRESS>臺北市北投區新市街30號5樓(社服中心門前第五塊天花板)</ADDRESS><HOTSPOT_TYPE>Taipei Free免費無線上網熱點(室內)</HOTSPOT_TYPE><LNG>121.502693</LNG><LAT>25.132673</LAT><STATUS>0</STATUS><PICURL>http://free-wifi.taipei/TPE/OpenData.aspx?id=BT020006</PICURL><FLOWURL>http://free-wifi.taipei/TPE/OpenData2.aspx?id=BT020006</FLOWURL><CFLOWURL>http://free-wifi.taipei/TPE/OpenDataCFlow.aspx?id=BT020006</CFLOWURL></hotspot><hotspot><AP_ID>BT020007</AP_ID><HOTSPOT_NAME>北投區行政中心</HOTSPOT_NAME><AREA>區行政中心</AREA><ADDRESS>臺北市北投區新市街30號5樓(就業服務處門前天花板)</ADDRESS><HOTSPOT_TYPE>Taipei Free免費無線上網熱點(室內)</HOTSPOT_TYPE><LNG>121.502693</LNG><LAT>25.132675</LAT><STATUS>0</STATUS><PICURL>http://free-wifi.taipei/TPE/OpenData.aspx?id=BT020007</PICURL><FLOWURL>http://free-wifi.taipei/TPE/OpenData2.aspx?id=BT020007</FLOWURL><CFLOWURL>http://free-wifi.taipei/TPE/OpenDataCFlow.aspx?id=BT020007</CFLOWURL></hotspot><hotspot><AP_ID>BT030001</AP_ID><HOTSPOT_NAME>秀山民眾閱覽室</HOTSPOT_NAME><AREA>閱覽室</AREA><ADDRESS>臺北市北投區中和街534號6樓(閱讀室牌示正前方2塊天花板處)</ADDRESS><HOTSPOT_TYPE>Taipei Free免費無線上網熱點(室內)</HOTSPOT_TYPE><LNG>121.493118</LNG><LAT>25.145577</LAT><STATUS>0</STATUS><PICURL>http://free-wifi.taipei/TPE/OpenData.aspx?id=BT030001</PICURL><FLOWURL>http://free-wifi.taipei/TPE/OpenData2.aspx?id=BT030001</FLOWURL><CFLOWURL>http://free-wifi.taipei/TPE/OpenDataCFlow.aspx?id=BT030001</CFLOWURL></hotspot><hotspot><AP_ID>BT030002</AP_ID><HOTSPOT_NAME>秀山民眾閱覽室</HOTSPOT_NAME><AREA>閱覽室</AREA><ADDRESS>臺北市北投區中和街534號7樓(自修區牌示正後方三塊天花板處)</ADDRESS><HOTSPOT_TYPE>Taipei Free免費無線上網熱點(室內)</HOTSPOT_TYPE><LNG>121.493114</LNG><LAT>25.145577</LAT><STATUS>0</STATUS><PICURL>http://free-wifi.taipei/TPE/OpenData.aspx?id=BT030002</PICURL><FLOWURL>http://free-wifi.taipei/TPE/OpenData2.aspx?id=BT030002</FLOWURL><CFLOWURL>http://free-wifi.taipei/TPE/OpenDataCFlow.aspx?id=BT030002</CFLOWURL></hotspot><hotspot><AP_ID>BT030003</AP_ID><HOTSPOT_NAME>清江分館</HOTSPOT_NAME><AREA>圖書館</AREA><ADDRESS>臺北市北投區公館路198號3樓(10號書架與自修區之間上方)</ADDRESS><HOTSPOT_TYPE>Taipei Free免費無線上網熱點(室內)</HOTSPOT_TYPE><LNG>121.50735</LNG><LAT>25.127735</LAT><STATUS>0</STATUS><PICURL>http://free-wifi.taipei/TPE/OpenData.aspx?id=BT030003</PICURL><FLOWURL>http://free-wifi.taipei/TPE/OpenData2.aspx?id=BT030003</FLOWURL><CFLOWURL>http://free-wifi.taipei/TPE/OpenDataCFlow.aspx?id=BT030003</CFLOWURL></hotspot><hotspot><AP_ID>BT030004</AP_ID><HOTSPOT_NAME>清江分館</HOTSPOT_NAME><AREA>圖書館</AREA><ADDRESS>臺北市北投區公館路198號3樓(筆電區與視聽資料區間上)</ADDRESS><HOTSPOT_TYPE>Taipei Free免費無線上網熱點(室內)</HOTSPOT_TYPE><LNG>121.50735</LNG><LAT>25.127733</LAT><STATUS>0</STATUS><PICURL>http://free-wifi.taipei/TPE/OpenData.aspx?id=BT030004</PICURL><FLOWURL>http://free-wifi.taipei/TPE/OpenData2.aspx?id=BT030004</FLOWURL><CFLOWURL>http://free-wifi.taipei/TPE/OpenDataCFlow.aspx?id=BT030004</CFLOWURL></hotspot><hotspot><AP_ID>BT030005</AP_ID><HOTSPOT_NAME>永明民眾閱覽室</HOTSPOT_NAME><AREA>閱覽室</AREA><ADDRESS>臺北市北投區石牌路二段115號7樓(兒童圖書區正前方第2塊石膏板)</ADDRESS><HOTSPOT_TYPE>Taipei Free免費無線上網熱點(室內)</HOTSPOT_TYPE><LNG>121.517176</LNG><LAT>25.118068</LAT><STATUS>0</STATUS><PICURL>http://free-wifi.taipei/TPE/OpenData.aspx?id=BT030005</PICURL><FLOWURL>http://free-wifi.taipei/TPE/OpenData2.aspx?id=BT030005</FLOWURL><CFLOWURL>http://free-wifi.taipei/TPE/OpenDataCFlow.aspx?id=BT030005</CFLOWURL></hotspot><hotspot><AP_ID>BT030006</AP_ID><HOTSPOT_NAME>永明民眾閱覽室</HOTSPOT_NAME><AREA>閱覽室</AREA><ADDRESS>臺北市北投區石牌路二段115號8樓(座位區第一張桌子上方)</ADDRESS><HOTSPOT_TYPE>Taipei Free免費無線上網熱點(室內)</HOTSPOT_TYPE><LNG>121.517178</LNG><LAT>25.118068</LAT><STATUS>0</STATUS><PICURL>http://free-wifi.taipei/TPE/OpenData.aspx?id=BT030006</PICURL><FLOWURL>http://free-wifi.taipei/TPE/OpenData2.aspx?id=BT030006</FLOWURL><CFLOWURL>http://free-wifi.taipei/TPE/OpenDataCFlow.aspx?id=BT030006</CFLOWURL></hotspot><hotspot><AP_ID>BT030007</AP_ID><HOTSPOT_NAME>吉利分館</HOTSPOT_NAME><AREA>圖書館</AREA><ADDRESS>臺北市北投區立農街一段366號5樓(自修室正中央天花板上)</ADDRESS><HOTSPOT_TYPE>Taipei Free免費無線上網熱點(室內)</HOTSPOT_TYPE><LNG>121.508385</LNG><LAT>25.119306</LAT><STATUS>0</STATUS><PICURL>http://free-wifi.taipei/TPE/OpenData.aspx?id=BT030007</PICURL><FLOWURL>http://free-wifi.taipei/TPE/OpenData2.aspx?id=BT030007</FLOWURL><CFLOWURL>http://free-wifi.taipei/TPE/OpenDataCFlow.aspx?id=BT030007</CFLOWURL></hotspot><hotspot><AP_ID>BT030009</AP_ID><HOTSPOT_NAME>吉利分館</HOTSPOT_NAME><AREA>圖書館</AREA><ADDRESS>臺北市北投區立農街一段366號7樓(參考區及期刊閱報區正中央天花板上)</ADDRESS><HOTSPOT_TYPE>Taipei Free免費無線上網熱點(室內)</HOTSPOT_TYPE><LNG>121.508387</LNG><LAT>25.119306</LAT><STATUS>0</STATUS><PICURL>http://free-wifi.taipei/TPE/OpenData.aspx?id=BT030009</PICURL><FLOWURL>http://free-wifi.taipei/TPE/OpenData2.aspx?id=BT030009</FLOWURL><CFLOWURL>http://free-wifi.taipei/TPE/OpenDataCFlow.aspx?id=BT030009</CFLOWURL></hotspot><hotspot><AP_ID>BT030010</AP_ID><HOTSPOT_NAME>吉利分館</HOTSPOT_NAME><AREA>圖書館</AREA><ADDRESS>臺北市北投區立農街一段366號8樓(圖書區正中央天花板上)</ADDRESS><HOTSPOT_TYPE>Taipei Free免費無線上網熱點(室內)</HOTSPOT_TYPE><LNG>121.508383</LNG><LAT>25.119306</LAT><STATUS>0</STATUS><PICURL>http://free-wifi.taipei/TPE/OpenData.aspx?id=BT030010</PICURL><FLOWURL>http://free-wifi.taipei/TPE/OpenData2.aspx?id=BT030010</FLOWURL><CFLOWURL>http://free-wifi.taipei/TPE/OpenDataCFlow.aspx?id=BT030010</CFLOWURL></hotspot><hotspot><AP_ID>BT030011</AP_ID><HOTSPOT_NAME>北投分館</HOTSPOT_NAME><AREA>圖書館</AREA><ADDRESS>臺北市北投區光明路251號1樓【中文圖書區中間位置天花板內】</ADDRESS><HOTSPOT_TYPE>Taipei Free免費無線上網熱點(室內)</HOTSPOT_TYPE><LNG>121.506296</LNG><LAT>25.136298</LAT><STATUS>0</STATUS><PICURL>http://free-wifi.taipei/TPE/OpenData.aspx?id=BT030011</PICURL><FLOWURL>http://free-wifi.taipei/TPE/OpenData2.aspx?id=BT030011</FLOWURL><CFLOWURL>http://free-wifi.taipei/TPE/OpenDataCFlow.aspx?id=BT030011</CFLOWURL></hotspot><hotspot><AP_ID>BT030012</AP_ID><HOTSPOT_NAME>北投分館</HOTSPOT_NAME><AREA>圖書館</AREA><ADDRESS>臺北市北投區光明路251號1樓【閱報區中間位置天花板內】</ADDRESS><HOTSPOT_TYPE>Taipei Free免費無線上網熱點(室內)</HOTSPOT_TYPE><LNG>121.506298</LNG><LAT>25.136298</LAT><STATUS>0</STATUS><PICURL>http://free-wifi.taipei/TPE/OpenData.aspx?id=BT030012</PICURL><FLOWURL>http://free-wifi.taipei/TPE/OpenData2.aspx?id=BT030012</FLOWURL><CFLOWURL>http://free-wifi.taipei/TPE/OpenDataCFlow.aspx?id=BT030012</CFLOWURL></hotspot><hotspot><AP_ID>BT030013</AP_ID><HOTSPOT_NAME>北投分館</HOTSPOT_NAME><AREA>圖書館</AREA><ADDRESS>臺北市北投區光明路251號2樓【多功能討論室門前天花板內】</ADDRESS><HOTSPOT_TYPE>Taipei Free免費無線上網熱點(室內)</HOTSPOT_TYPE><LNG>121.506294</LNG><LAT>25.136298</LAT><STATUS>0</STATUS><PICURL>http://free-wifi.taipei/TPE/OpenData.aspx?id=BT030013</PICURL><FLOWURL>http://free-wifi.taipei/TPE/OpenData2.aspx?id=BT030013</FLOWURL><CFLOWURL>http://free-wifi.taipei/TPE/OpenDataCFlow.aspx?id=BT030013</CFLOWURL></hotspot><hotspot><AP_ID>BT030014</AP_ID><HOTSPOT_NAME>北投分館</HOTSPOT_NAME><AREA>圖書館</AREA><ADDRESS>臺北市北投區光明路251號B1【閱讀區中間位置天花板內】</ADDRESS><HOTSPOT_TYPE>Taipei Free免費無線上網熱點(室內)</HOTSPOT_TYPE><LNG>121.506292</LNG><LAT>25.136298</LAT><STATUS>0</STATUS><PICURL>http://free-wifi.taipei/TPE/OpenData.aspx?id=BT030014</PICURL><FLOWURL>http://free-wifi.taipei/TPE/OpenData2.aspx?id=BT030014</FLOWURL><CFLOWURL>http://free-wifi.taipei/TPE/OpenDataCFlow.aspx?id=BT030014</CFLOWURL></hotspot><hotspot><AP_ID>BT030015</AP_ID><HOTSPOT_NAME>石牌分館</HOTSPOT_NAME><AREA>圖書館</AREA><ADDRESS>臺北市北投區明德路208巷5號3樓【自修室中間上方處)】</ADDRESS><HOTSPOT_TYPE>Taipei Free免費無線上網熱點(室內)</HOTSPOT_TYPE><LNG>121.52266</LNG><LAT>25.113177</LAT><STATUS>0</STATUS><PICURL>http://free-wifi.taipei/TPE/OpenData.aspx?id=BT030015</PICURL><FLOWURL>http://free-wifi.taipei/TPE/OpenData2.aspx?id=BT030015</FLOWURL><CFLOWURL>http://free-wifi.taipei/TPE/OpenDataCFlow.aspx?id=BT030015</CFLOWURL></hotspot><hotspot><AP_ID>BT030016</AP_ID><HOTSPOT_NAME>石牌分館</HOTSPOT_NAME><AREA>圖書館</AREA><ADDRESS>臺北市北投區明德路208巷5號4樓【期刊區與綜合服務區上方處(維修孔)】</ADDRESS><HOTSPOT_TYPE>Taipei Free免費無線上網熱點(室內)</HOTSPOT_TYPE><LNG>121.52268</LNG><LAT>25.113177</LAT><STATUS>0</STATUS><PICURL>http://free-wifi.taipei/TPE/OpenData.aspx?id=BT030016</PICURL><FLOWURL>http://free-wifi.taipei/TPE/OpenData2.aspx?id=BT030016</FLOWURL><CFLOWURL>http://free-wifi.taipei/TPE/OpenDataCFlow.aspx?id=BT030016</CFLOWURL></hotspot><hotspot><AP_ID>BT030017</AP_ID><HOTSPOT_NAME>石牌分館</HOTSPOT_NAME><AREA>圖書館</AREA><ADDRESS>臺北市北投區明德路208巷5號9樓(青少年中文圖書區(高中區)</ADDRESS><HOTSPOT_TYPE>Taipei Free免費無線上網熱點(室內)</HOTSPOT_TYPE><LNG>121.52264</LNG><LAT>25.113177</LAT><STATUS>0</STATUS><PICURL>http://free-wifi.taipei/TPE/OpenData.aspx?id=BT030017</PICURL><FLOWURL>http://free-wifi.taipei/TPE/OpenData2.aspx?id=BT030017</FLOWURL><CFLOWURL>http://free-wifi.taipei/TPE/OpenDataCFlow.aspx?id=BT030017</CFLOWURL></hotspot><hotspot><AP_ID>BT030018</AP_ID><HOTSPOT_NAME>石牌分館</HOTSPOT_NAME><AREA>圖書館</AREA><ADDRESS>臺北市北投區明德路208巷5號6樓【開架閱覽室中間處(維修孔)】</ADDRESS><HOTSPOT_TYPE>Taipei Free免費無線上網熱點(室內)</HOTSPOT_TYPE><LNG>121.52262</LNG><LAT>25.113177</LAT><STATUS>0</STATUS><PICURL>http://free-wifi.taipei/TPE/OpenData.aspx?id=BT030018</PICURL><FLOWURL>http://free-wifi.taipei/TPE/OpenData2.aspx?id=BT030018</FLOWURL><CFLOWURL>http://free-wifi.taipei/TPE/OpenDataCFlow.aspx?id=BT030018</CFLOWURL></hotspot><hotspot><AP_ID>BT030019</AP_ID><HOTSPOT_NAME>石牌分館</HOTSPOT_NAME><AREA>圖書館</AREA><ADDRESS>臺北市北投區明德路208巷5號7樓【外文書籍區上方(維修孔)】</ADDRESS><HOTSPOT_TYPE>Taipei Free免費無線上網熱點(室內)</HOTSPOT_TYPE><LNG>121.52266</LNG><LAT>25.113175</LAT><STATUS>0</STATUS><PICURL>http://free-wifi.taipei/TPE/OpenData.aspx?id=BT030019</PICURL><FLOWURL>http://free-wifi.taipei/TPE/OpenData2.aspx?id=BT030019</FLOWURL><CFLOWURL>http://free-wifi.taipei/TPE/OpenDataCFlow.aspx?id=BT030019</CFLOWURL></hotspot><hotspot><AP_ID>BT030020</AP_ID><HOTSPOT_NAME>石牌分館</HOTSPOT_NAME><AREA>圖書館</AREA><ADDRESS>臺北市北投區明德路208巷5號8樓【參考資料區靠窗戶邊上方(維修孔)】</ADDRESS><HOTSPOT_TYPE>Taipei Free免費無線上網熱點(室內)</HOTSPOT_TYPE><LNG>121.52266</LNG><LAT>25.113173</LAT><STATUS>0</STATUS><PICURL>http://free-wifi.taipei/TPE/OpenData.aspx?id=BT030020</PICURL><FLOWURL>http://free-wifi.taipei/TPE/OpenData2.aspx?id=BT030020</FLOWURL><CFLOWURL>http://free-wifi.taipei/TPE/OpenDataCFlow.aspx?id=BT030020</CFLOWURL></hotspot><hotspot><AP_ID>BT030021</AP_ID><HOTSPOT_NAME>稻香分館</HOTSPOT_NAME><AREA>圖書館</AREA><ADDRESS>臺北市北投區稻香路81號3樓(一般圖書區右方14號櫃前天花板)</ADDRESS><HOTSPOT_TYPE>Taipei Free免費無線上網熱點(室內)</HOTSPOT_TYPE><LNG>121.489538</LNG><LAT>25.140952</LAT><STATUS>0</STATUS><PICURL>http://free-wifi.taipei/TPE/OpenData.aspx?id=BT030021</PICURL><FLOWURL>http://free-wifi.taipei/TPE/OpenData2.aspx?id=BT030021</FLOWURL><CFLOWURL>http://free-wifi.taipei/TPE/OpenDataCFlow.aspx?id=BT030021</CFLOWURL></hotspot><hotspot><AP_ID>BT030022</AP_ID><HOTSPOT_NAME>稻香分館</HOTSPOT_NAME><AREA>圖書館</AREA><ADDRESS>臺北市北投區稻香路81號4樓(自修室門口進去約1米半處天花板，自修室入口處)</ADDRESS><HOTSPOT_TYPE>Taipei Free免費無線上網熱點(室內)</HOTSPOT_TYPE><LNG>121.489534</LNG><LAT>25.140952</LAT><STATUS>0</STATUS><PICURL>http://free-wifi.taipei/TPE/OpenData.aspx?id=BT030022</PICURL><FLOWURL>http://free-wifi.taipei/TPE/OpenData2.aspx?id=BT030022</FLOWURL><CFLOWURL>http://free-wifi.taipei/TPE/OpenDataCFlow.aspx?id=BT030022</CFLOWURL></hotspot><hotspot><AP_ID>BT030023</AP_ID><HOTSPOT_NAME>吉利分館</HOTSPOT_NAME><AREA>圖書館</AREA><ADDRESS>臺北市北投區立農街一段366號6樓(櫃台前方)</ADDRESS><HOTSPOT_TYPE>Taipei Free免費無線上網熱點(室內)</HOTSPOT_TYPE><LNG>121.50842</LNG><LAT>25.11926</LAT><STATUS>0</STATUS><PICURL>http://free-wifi.taipei/TPE/OpenData.aspx?id=BT030023</PICURL><FLOWURL>http://free-wifi.taipei/TPE/OpenData2.aspx?id=BT030023</FLOWURL><CFLOWURL>http://free-wifi.taipei/TPE/OpenDataCFlow.aspx?id=BT030023</CFLOWURL></hotspot><hotspot><AP_ID>BT040001</AP_ID><HOTSPOT_NAME>關渡醫院</HOTSPOT_NAME><AREA>關渡醫院</AREA><ADDRESS>臺北市北投區知行路225巷12號(1F領藥櫃台內天花板)</ADDRESS><HOTSPOT_TYPE>Taipei Free免費無線上網熱點(室內)</HOTSPOT_TYPE><LNG>121.4663</LNG><LAT>25.12042</LAT><STATUS>0</STATUS><PICURL>http://free-wifi.taipei/TPE/OpenData.aspx?id=BT040001</PICURL><FLOWURL>http://free-wifi.taipei/TPE/OpenData2.aspx?id=BT040001</FLOWURL><CFLOWURL>http://free-wifi.taipei/TPE/OpenDataCFlow.aspx?id=BT040001</CFLOWURL></hotspot><hotspot><AP_ID>BT040002</AP_ID><HOTSPOT_NAME>關渡醫院</HOTSPOT_NAME><AREA>關渡醫院</AREA><ADDRESS>臺北市北投區知行路225巷12號(1F急診大廳中央天花板)</ADDRESS><HOTSPOT_TYPE>Taipei Free免費無線上網熱點(室內)</HOTSPOT_TYPE><LNG>121.4664</LNG><LAT>25.12045</LAT><STATUS>0</STATUS><PICURL>http://free-wifi.taipei/TPE/OpenData.aspx?id=BT040002</PICURL><FLOWURL>http://free-wifi.taipei/TPE/OpenData2.aspx?id=BT040002</FLOWURL><CFLOWURL>http://free-wifi.taipei/TPE/OpenDataCFlow.aspx?id=BT040002</CFLOWURL></hotspot><hotspot><AP_ID>BT040003</AP_ID><HOTSPOT_NAME>關渡醫院</HOTSPOT_NAME><AREA>關渡醫院</AREA><ADDRESS>臺北市北投區知行路225巷12號(1F等候大廳中央天花板)</ADDRESS><HOTSPOT_TYPE>Taipei Free免費無線上網熱點(室內)</HOTSPOT_TYPE><LNG>121.4664</LNG><LAT>25.12049</LAT><STATUS>0</STATUS><PICURL>http://free-wifi.taipei/TPE/OpenData.aspx?id=BT040003</PICURL><FLOWURL>http://free-wifi.taipei/TPE/OpenData2.aspx?id=BT040003</FLOWURL><CFLOWURL>http://free-wifi.taipei/TPE/OpenDataCFlow.aspx?id=BT040003</CFLOWURL></hotspot><hotspot><AP_ID>BT040004</AP_ID><HOTSPOT_NAME>關渡醫院</HOTSPOT_NAME><AREA>關渡醫院</AREA><ADDRESS>臺北市北投區知行路225巷12號(1FX光掛號台前天花板)</ADDRESS><HOTSPOT_TYPE>Taipei Free免費無線上網熱點(室內)</HOTSPOT_TYPE><LNG>121.4663</LNG><LAT>25.1204</LAT><STATUS>0</STATUS><PICURL>http://free-wifi.taipei/TPE/OpenData.aspx?id=BT040004</PICURL><FLOWURL>http://free-wifi.taipei/TPE/OpenData2.aspx?id=BT040004</FLOWURL><CFLOWURL>http://free-wifi.taipei/TPE/OpenDataCFlow.aspx?id=BT040004</CFLOWURL></hotspot><hotspot><AP_ID>BT040005</AP_ID><HOTSPOT_NAME>關渡醫院</HOTSPOT_NAME><AREA>關渡醫院</AREA><ADDRESS>臺北市北投區知行路225巷12號(2F隔離病房護理站前天花板)</ADDRESS><HOTSPOT_TYPE>Taipei Free免費無線上網熱點(室內)</HOTSPOT_TYPE><LNG>121.4663</LNG><LAT>25.12052</LAT><STATUS>0</STATUS><PICURL>http://free-wifi.taipei/TPE/OpenData.aspx?id=BT040005</PICURL><FLOWURL>http://free-wifi.taipei/TPE/OpenData2.aspx?id=BT040005</FLOWURL><CFLOWURL>http://free-wifi.taipei/TPE/OpenDataCFlow.aspx?id=BT040005</CFLOWURL></hotspot><hotspot><AP_ID>BT040006</AP_ID><HOTSPOT_NAME>關渡醫院</HOTSPOT_NAME><AREA>關渡醫院</AREA><ADDRESS>臺北市北投區知行路225巷12號(2F206門診前上方天花板)</ADDRESS><HOTSPOT_TYPE>Taipei Free免費無線上網熱點(室內)</HOTSPOT_TYPE><LNG>121.4662</LNG><LAT>25.12038</LAT><STATUS>0</STATUS><PICURL>http://free-wifi.taipei/TPE/OpenData.aspx?id=BT040006</PICURL><FLOWURL>http://free-wifi.taipei/TPE/OpenData2.aspx?id=BT040006</FLOWURL><CFLOWURL>http://free-wifi.taipei/TPE/OpenDataCFlow.aspx?id=BT040006</CFLOWURL></hotspot><hotspot><AP_ID>BT040007</AP_ID><HOTSPOT_NAME>關渡醫院</HOTSPOT_NAME><AREA>關渡醫院</AREA><ADDRESS>臺北市北投區知行路225巷12號(2F腎臟科辦公室前天花板)</ADDRESS><HOTSPOT_TYPE>Taipei Free免費無線上網熱點(室內)</HOTSPOT_TYPE><LNG>121.4662</LNG><LAT>25.12056</LAT><STATUS>0</STATUS><PICURL>http://free-wifi.taipei/TPE/OpenData.aspx?id=BT040007</PICURL><FLOWURL>http://free-wifi.taipei/TPE/OpenData2.aspx?id=BT040007</FLOWURL><CFLOWURL>http://free-wifi.taipei/TPE/OpenDataCFlow.aspx?id=BT040007</CFLOWURL></hotspot><hotspot><AP_ID>BT040008</AP_ID><HOTSPOT_NAME>關渡醫院</HOTSPOT_NAME><AREA>關渡醫院</AREA><ADDRESS>臺北市北投區知行路225巷12號(3F門診等候區中央天花板)</ADDRESS><HOTSPOT_TYPE>Taipei Free免費無線上網熱點(室內)</HOTSPOT_TYPE><LNG>121.4661</LNG><LAT>25.12056</LAT><STATUS>0</STATUS><PICURL>http://free-wifi.taipei/TPE/OpenData.aspx?id=BT040008</PICURL><FLOWURL>http://free-wifi.taipei/TPE/OpenData2.aspx?id=BT040008</FLOWURL><CFLOWURL>http://free-wifi.taipei/TPE/OpenDataCFlow.aspx?id=BT040008</CFLOWURL></hotspot><hotspot><AP_ID>BT040009</AP_ID><HOTSPOT_NAME>關渡醫院</HOTSPOT_NAME><AREA>關渡醫院</AREA><ADDRESS>臺北市北投區知行路225巷12號(3F復健科內天花板)</ADDRESS><HOTSPOT_TYPE>Taipei Free免費無線上網熱點(室內)</HOTSPOT_TYPE><LNG>121.4661</LNG><LAT>25.12031</LAT><STATUS>0</STATUS><PICURL>http://free-wifi.taipei/TPE/OpenData.aspx?id=BT040009</PICURL><FLOWURL>http://free-wifi.taipei/TPE/OpenData2.aspx?id=BT040009</FLOWURL><CFLOWURL>http://free-wifi.taipei/TPE/OpenDataCFlow.aspx?id=BT040009</CFLOWURL></hotspot><hotspot><AP_ID>BT040011</AP_ID><HOTSPOT_NAME>關渡醫院</HOTSPOT_NAME><AREA>關渡醫院</AREA><ADDRESS>臺北市北投區知行路225巷12號(5F出電梯右側看診座位區上方天花板)</ADDRESS><HOTSPOT_TYPE>Taipei Free免費無線上網熱點(室內)</HOTSPOT_TYPE><LNG>121.4661</LNG><LAT>25.12055</LAT><STATUS>0</STATUS><PICURL>http://free-wifi.taipei/TPE/OpenData.aspx?id=BT040011</PICURL><FLOWURL>http://free-wifi.taipei/TPE/OpenData2.aspx?id=BT040011</FLOWURL><CFLOWURL>http://free-wifi.taipei/TPE/OpenDataCFlow.aspx?id=BT040011</CFLOWURL></hotspot><hotspot><AP_ID>BT040012</AP_ID><HOTSPOT_NAME>關渡醫院</HOTSPOT_NAME><AREA>關渡醫院</AREA><ADDRESS>臺北市北投區知行路225巷12號(6F護理站前天花板)</ADDRESS><HOTSPOT_TYPE>Taipei Free免費無線上網熱點(室內)</HOTSPOT_TYPE><LNG>121.4664</LNG><LAT>25.12058</LAT><STATUS>0</STATUS><PICURL>http://free-wifi.taipei/TPE/OpenData.aspx?id=BT040012</PICURL><FLOWURL>http://free-wifi.taipei/TPE/OpenData2.aspx?id=BT040012</FLOWURL><CFLOWURL>http://free-wifi.taipei/TPE/OpenDataCFlow.aspx?id=BT040012</CFLOWURL></hotspot><hotspot><AP_ID>BT050001</AP_ID><HOTSPOT_NAME>奇岩站</HOTSPOT_NAME><AREA>捷運站</AREA><ADDRESS>臺北市北投區三合街二段489號(1樓電梯左後方上面)</ADDRESS><HOTSPOT_TYPE>Taipei Free免費無線上網熱點(室內)</HOTSPOT_TYPE><LNG>121.501128</LNG><LAT>25.125478</LAT><STATUS>0</STATUS><PICURL>http://free-wifi.taipei/TPE/OpenData.aspx?id=BT050001</PICURL><FLOWURL>http://free-wifi.taipei/TPE/OpenData2.aspx?id=BT050001</FLOWURL><CFLOWURL>http://free-wifi.taipei/TPE/OpenDataCFlow.aspx?id=BT050001</CFLOWURL></hotspot><hotspot><AP_ID>BT050002</AP_ID><HOTSPOT_NAME>奇岩站</HOTSPOT_NAME><AREA>捷運站</AREA><ADDRESS>臺北市北投區三合街二段489號(出口右上方)</ADDRESS><HOTSPOT_TYPE>Taipei Free免費無線上網熱點(室內)</HOTSPOT_TYPE><LNG>121.501126</LNG><LAT>25.125478</LAT><STATUS>0</STATUS><PICURL>http://free-wifi.taipei/TPE/OpenData.aspx?id=BT050002</PICURL><FLOWURL>http://free-wifi.taipei/TPE/OpenData2.aspx?id=BT050002</FLOWURL><CFLOWURL>http://free-wifi.taipei/TPE/OpenDataCFlow.aspx?id=BT050002</CFLOWURL></hotspot><hotspot><AP_ID>BT050003</AP_ID><HOTSPOT_NAME>奇岩站</HOTSPOT_NAME><AREA>捷運站</AREA><ADDRESS>臺北市北投區三合街二段489號(往北投方向月台座位區)</ADDRESS><HOTSPOT_TYPE>Taipei Free免費無線上網熱點(室內)</HOTSPOT_TYPE><LNG>121.501124</LNG><LAT>25.125478</LAT><STATUS>0</STATUS><PICURL>http://free-wifi.taipei/TPE/OpenData.aspx?id=BT050003</PICURL><FLOWURL>http://free-wifi.taipei/TPE/OpenData2.aspx?id=BT050003</FLOWURL><CFLOWURL>http://free-wifi.taipei/TPE/OpenDataCFlow.aspx?id=BT050003</CFLOWURL></hotspot><hotspot><AP_ID>BT050004</AP_ID><HOTSPOT_NAME>奇岩站</HOTSPOT_NAME><AREA>捷運站</AREA><ADDRESS>臺北市北投區三合街二段489號(往台北方向月台座位區)</ADDRESS><HOTSPOT_TYPE>Taipei Free免費無線上網熱點(室內)</HOTSPOT_TYPE><LNG>121.501122</LNG><LAT>25.125478</LAT><STATUS>0</STATUS><PICURL>http://free-wifi.taipei/TPE/OpenData.aspx?id=BT050004</PICURL><FLOWURL>http://free-wifi.taipei/TPE/OpenData2.aspx?id=BT050004</FLOWURL><CFLOWURL>http://free-wifi.taipei/TPE/OpenDataCFlow.aspx?id=BT050004</CFLOWURL></hotspot><hotspot><AP_ID>BT050005</AP_ID><HOTSPOT_NAME>關渡站</HOTSPOT_NAME><AREA>捷運站</AREA><ADDRESS>臺北市北投區大度路三段296巷51號(1號月台近樓梯)</ADDRESS><HOTSPOT_TYPE>Taipei Free免費無線上網熱點(室內)</HOTSPOT_TYPE><LNG>121.4669</LNG><LAT>25.12529</LAT><STATUS>0</STATUS><PICURL>http://free-wifi.taipei/TPE/OpenData.aspx?id=BT050005</PICURL><FLOWURL>http://free-wifi.taipei/TPE/OpenData2.aspx?id=BT050005</FLOWURL><CFLOWURL>http://free-wifi.taipei/TPE/OpenDataCFlow.aspx?id=BT050005</CFLOWURL></hotspot><hotspot><AP_ID>BT050006</AP_ID><HOTSPOT_NAME>關渡站</HOTSPOT_NAME><AREA>捷運站</AREA><ADDRESS>臺北市北投區大度路三段296巷51號(2號月台近詢問處)</ADDRESS><HOTSPOT_TYPE>Taipei Free免費無線上網熱點(室內)</HOTSPOT_TYPE><LNG>121.4671</LNG><LAT>25.12563</LAT><STATUS>0</STATUS><PICURL>http://free-wifi.taipei/TPE/OpenData.aspx?id=BT050006</PICURL><FLOWURL>http://free-wifi.taipei/TPE/OpenData2.aspx?id=BT050006</FLOWURL><CFLOWURL>http://free-wifi.taipei/TPE/OpenDataCFlow.aspx?id=BT050006</CFLOWURL></hotspot><hotspot><AP_ID>BT050008</AP_ID><HOTSPOT_NAME>捷運北投會館</HOTSPOT_NAME><AREA>為民服務單位</AREA><ADDRESS>臺北市北投區大業路527巷88號(3F房間編號310號前上方天花板)</ADDRESS><HOTSPOT_TYPE>Taipei Free免費無線上網熱點(室內)</HOTSPOT_TYPE><LNG>121.4835</LNG><LAT>25.13458</LAT><STATUS>0</STATUS><PICURL>http://free-wifi.taipei/TPE/OpenData.aspx?id=BT050008</PICURL><FLOWURL>http://free-wifi.taipei/TPE/OpenData2.aspx?id=BT050008</FLOWURL><CFLOWURL>http://free-wifi.taipei/TPE/OpenDataCFlow.aspx?id=BT050008</CFLOWURL></hotspot><hotspot><AP_ID>BT050011</AP_ID><HOTSPOT_NAME>捷運北投會館</HOTSPOT_NAME><AREA>為民服務單位</AREA><ADDRESS>臺北市北投區大業路527巷88號(逃生體驗營前方)</ADDRESS><HOTSPOT_TYPE>Taipei Free免費無線上網熱點(室內)</HOTSPOT_TYPE><LNG>121.4837</LNG><LAT>25.13489</LAT><STATUS>0</STATUS><PICURL>http://free-wifi.taipei/TPE/OpenData.aspx?id=BT050011</PICURL><FLOWURL>http://free-wifi.taipei/TPE/OpenData2.aspx?id=BT050011</FLOWURL><CFLOWURL>http://free-wifi.taipei/TPE/OpenDataCFlow.aspx?id=BT050011</CFLOWURL></hotspot><hotspot><AP_ID>BT050013</AP_ID><HOTSPOT_NAME>捷運北投會館</HOTSPOT_NAME><AREA>為民服務單位</AREA><ADDRESS>臺北市北投區大業路527巷88號(1F房間編號116號前上方天花板)</ADDRESS><HOTSPOT_TYPE>Taipei Free免費無線上網熱點(室內)</HOTSPOT_TYPE><LNG>121.4836</LNG><LAT>25.1347</LAT><STATUS>0</STATUS><PICURL>http://free-wifi.taipei/TPE/OpenData.aspx?id=BT050013</PICURL><FLOWURL>http://free-wifi.taipei/TPE/OpenData2.aspx?id=BT050013</FLOWURL><CFLOWURL>http://free-wifi.taipei/TPE/OpenDataCFlow.aspx?id=BT050013</CFLOWURL></hotspot><hotspot><AP_ID>BT050015</AP_ID><HOTSPOT_NAME>捷運北投會館</HOTSPOT_NAME><AREA>為民服務單位</AREA><ADDRESS>臺北市北投區大業路527巷88號(B1F國際會議廳門前上方天花板)</ADDRESS><HOTSPOT_TYPE>Taipei Free免費無線上網熱點(室內)</HOTSPOT_TYPE><LNG>121.4833</LNG><LAT>25.13472</LAT><STATUS>0</STATUS><PICURL>http://free-wifi.taipei/TPE/OpenData.aspx?id=BT050015</PICURL><FLOWURL>http://free-wifi.taipei/TPE/OpenData2.aspx?id=BT050015</FLOWURL><CFLOWURL>http://free-wifi.taipei/TPE/OpenDataCFlow.aspx?id=BT050015</CFLOWURL></hotspot><hotspot><AP_ID>BT050017</AP_ID><HOTSPOT_NAME>捷運北投會館</HOTSPOT_NAME><AREA>為民服務單位</AREA><ADDRESS>臺北市北投區大業路527巷88號(福臨門餐廳與學員宿舍中間走道上方)</ADDRESS><HOTSPOT_TYPE>Taipei Free免費無線上網熱點(室內)</HOTSPOT_TYPE><LNG>121.4836</LNG><LAT>25.13482</LAT><STATUS>0</STATUS><PICURL>http://free-wifi.taipei/TPE/OpenData.aspx?id=BT050017</PICURL><FLOWURL>http://free-wifi.taipei/TPE/OpenData2.aspx?id=BT050017</FLOWURL><CFLOWURL>http://free-wifi.taipei/TPE/OpenDataCFlow.aspx?id=BT050017</CFLOWURL></hotspot><hotspot><AP_ID>BT050018</AP_ID><HOTSPOT_NAME>捷運北投會館</HOTSPOT_NAME><AREA>為民服務單位</AREA><ADDRESS>臺北市北投區大業路527巷88號(B2櫃檯前上方)</ADDRESS><HOTSPOT_TYPE>Taipei Free免費無線上網熱點(室內)</HOTSPOT_TYPE><LNG>121.4837</LNG><LAT>25.13492</LAT><STATUS>0</STATUS><PICURL>http://free-wifi.taipei/TPE/OpenData.aspx?id=BT050018</PICURL><FLOWURL>http://free-wifi.taipei/TPE/OpenData2.aspx?id=BT050018</FLOWURL><CFLOWURL>http://free-wifi.taipei/TPE/OpenDataCFlow.aspx?id=BT050018</CFLOWURL></hotspot><hotspot><AP_ID>BT050020</AP_ID><HOTSPOT_NAME>新北投站</HOTSPOT_NAME><AREA>捷運站</AREA><ADDRESS>臺北市北投區大業路700號(往北投方向月台座位區)</ADDRESS><HOTSPOT_TYPE>Taipei Free免費無線上網熱點(室內)</HOTSPOT_TYPE><LNG>121.50255</LNG><LAT>25.136933</LAT><STATUS>0</STATUS><PICURL>http://free-wifi.taipei/TPE/OpenData.aspx?id=BT050020</PICURL><FLOWURL>http://free-wifi.taipei/TPE/OpenData2.aspx?id=BT050020</FLOWURL><CFLOWURL>http://free-wifi.taipei/TPE/OpenDataCFlow.aspx?id=BT050020</CFLOWURL></hotspot><hotspot><AP_ID>BT050021</AP_ID><HOTSPOT_NAME>新北投站</HOTSPOT_NAME><AREA>捷運站</AREA><ADDRESS>臺北市北投區大業路700號(往新北投公園方向月台座位區)</ADDRESS><HOTSPOT_TYPE>Taipei Free免費無線上網熱點(室內)</HOTSPOT_TYPE><LNG>121.50257</LNG><LAT>25.136933</LAT><STATUS>0</STATUS><PICURL>http://free-wifi.taipei/TPE/OpenData.aspx?id=BT050021</PICURL><FLOWURL>http://free-wifi.taipei/TPE/OpenData2.aspx?id=BT050021</FLOWURL><CFLOWURL>http://free-wifi.taipei/TPE/OpenDataCFlow.aspx?id=BT050021</CFLOWURL></hotspot><hotspot><AP_ID>BT050022</AP_ID><HOTSPOT_NAME>新北投站</HOTSPOT_NAME><AREA>捷運站</AREA><ADDRESS>臺北市北投區大業路700號(站外出口)</ADDRESS><HOTSPOT_TYPE>Taipei Free免費無線上網熱點(室內)</HOTSPOT_TYPE><LNG>121.50257</LNG><LAT>25.136939</LAT><STATUS>0</STATUS><PICURL>http://free-wifi.taipei/TPE/OpenData.aspx?id=BT050022</PICURL><FLOWURL>http://free-wifi.taipei/TPE/OpenData2.aspx?id=BT050022</FLOWURL><CFLOWURL>http://free-wifi.taipei/TPE/OpenDataCFlow.aspx?id=BT050022</CFLOWURL></hotspot><hotspot><AP_ID>BT050023</AP_ID><HOTSPOT_NAME>復興崗站</HOTSPOT_NAME><AREA>捷運站</AREA><ADDRESS>臺北市北投區中央北路三段53巷10號(1號月台近詢問處)</ADDRESS><HOTSPOT_TYPE>Taipei Free免費無線上網熱點(室內)</HOTSPOT_TYPE><LNG>121.485444</LNG><LAT>25.137474</LAT><STATUS>0</STATUS><PICURL>http://free-wifi.taipei/TPE/OpenData.aspx?id=BT050023</PICURL><FLOWURL>http://free-wifi.taipei/TPE/OpenData2.aspx?id=BT050023</FLOWURL><CFLOWURL>http://free-wifi.taipei/TPE/OpenDataCFlow.aspx?id=BT050023</CFLOWURL></hotspot><hotspot><AP_ID>BT050024</AP_ID><HOTSPOT_NAME>復興崗站</HOTSPOT_NAME><AREA>捷運站</AREA><ADDRESS>臺北市北投區中央北路三段53巷10號(2號月台近樓梯)</ADDRESS><HOTSPOT_TYPE>Taipei Free免費無線上網熱點(室內)</HOTSPOT_TYPE><LNG>121.485446</LNG><LAT>25.137474</LAT><STATUS>0</STATUS><PICURL>http://free-wifi.taipei/TPE/OpenData.aspx?id=BT050024</PICURL><FLOWURL>http://free-wifi.taipei/TPE/OpenData2.aspx?id=BT050024</FLOWURL><CFLOWURL>http://free-wifi.taipei/TPE/OpenDataCFlow.aspx?id=BT050024</CFLOWURL></hotspot><hotspot><AP_ID>BT050025</AP_ID><HOTSPOT_NAME>復興崗站</HOTSPOT_NAME><AREA>捷運站</AREA><ADDRESS>臺北市北投區中央北路三段53巷10號(天橋上)</ADDRESS><HOTSPOT_TYPE>Taipei Free免費無線上網熱點(室內)</HOTSPOT_TYPE><LNG>121.485448</LNG><LAT>25.137474</LAT><STATUS>0</STATUS><PICURL>http://free-wifi.taipei/TPE/OpenData.aspx?id=BT050025</PICURL><FLOWURL>http://free-wifi.taipei/TPE/OpenData2.aspx?id=BT050025</FLOWURL><CFLOWURL>http://free-wifi.taipei/TPE/OpenDataCFlow.aspx?id=BT050025</CFLOWURL></hotspot><hotspot><AP_ID>BT050026</AP_ID><HOTSPOT_NAME>忠義站</HOTSPOT_NAME><AREA>捷運站</AREA><ADDRESS>臺北市北投區中央北路四段301號(1號月台近詢問處)</ADDRESS><HOTSPOT_TYPE>Taipei Free免費無線上網熱點(室內)</HOTSPOT_TYPE><LNG>121.473143</LNG><LAT>25.130894</LAT><STATUS>0</STATUS><PICURL>http://free-wifi.taipei/TPE/OpenData.aspx?id=BT050026</PICURL><FLOWURL>http://free-wifi.taipei/TPE/OpenData2.aspx?id=BT050026</FLOWURL><CFLOWURL>http://free-wifi.taipei/TPE/OpenDataCFlow.aspx?id=BT050026</CFLOWURL></hotspot><hotspot><AP_ID>BT050027</AP_ID><HOTSPOT_NAME>忠義站</HOTSPOT_NAME><AREA>捷運站</AREA><ADDRESS>臺北市北投區中央北路四段301號(2號月台近樓梯)</ADDRESS><HOTSPOT_TYPE>Taipei Free免費無線上網熱點(室內)</HOTSPOT_TYPE><LNG>121.473145</LNG><LAT>25.130894</LAT><STATUS>0</STATUS><PICURL>http://free-wifi.taipei/TPE/OpenData.aspx?id=BT050027</PICURL><FLOWURL>http://free-wifi.taipei/TPE/OpenData2.aspx?id=BT050027</FLOWURL><CFLOWURL>http://free-wifi.taipei/TPE/OpenDataCFlow.aspx?id=BT050027</CFLOWURL></hotspot><hotspot><AP_ID>BT050028</AP_ID><HOTSPOT_NAME>忠義站</HOTSPOT_NAME><AREA>捷運站</AREA><ADDRESS>臺北市北投區中央北路四段301號(天橋上)</ADDRESS><HOTSPOT_TYPE>Taipei Free免費無線上網熱點(室內)</HOTSPOT_TYPE><LNG>121.473141</LNG><LAT>25.130894</LAT><STATUS>0</STATUS><PICURL>http://free-wifi.taipei/TPE/OpenData.aspx?id=BT050028</PICURL><FLOWURL>http://free-wifi.taipei/TPE/OpenData2.aspx?id=BT050028</FLOWURL><CFLOWURL>http://free-wifi.taipei/TPE/OpenDataCFlow.aspx?id=BT050028</CFLOWURL></hotspot><hotspot><AP_ID>BT050029</AP_ID><HOTSPOT_NAME>石牌站</HOTSPOT_NAME><AREA>捷運站</AREA><ADDRESS>臺北市北投區石牌路一段200號(1號出口全家上面)</ADDRESS><HOTSPOT_TYPE>Taipei Free免費無線上網熱點(室內)</HOTSPOT_TYPE><LNG>121.515559</LNG><LAT>25.114523</LAT><STATUS>0</STATUS><PICURL>http://free-wifi.taipei/TPE/OpenData.aspx?id=BT050029</PICURL><FLOWURL>http://free-wifi.taipei/TPE/OpenData2.aspx?id=BT050029</FLOWURL><CFLOWURL>http://free-wifi.taipei/TPE/OpenDataCFlow.aspx?id=BT050029</CFLOWURL></hotspot><hotspot><AP_ID>BT050030</AP_ID><HOTSPOT_NAME>石牌站</HOTSPOT_NAME><AREA>捷運站</AREA><ADDRESS>臺北市北投區石牌路一段200號(1樓電梯左後方上面)</ADDRESS><HOTSPOT_TYPE>Taipei Free免費無線上網熱點(室內)</HOTSPOT_TYPE><LNG>121.515557</LNG><LAT>25.114523</LAT><STATUS>0</STATUS><PICURL>http://free-wifi.taipei/TPE/OpenData.aspx?id=BT050030</PICURL><FLOWURL>http://free-wifi.taipei/TPE/OpenData2.aspx?id=BT050030</FLOWURL><CFLOWURL>http://free-wifi.taipei/TPE/OpenDataCFlow.aspx?id=BT050030</CFLOWURL></hotspot><hotspot><AP_ID>BT050031</AP_ID><HOTSPOT_NAME>石牌站</HOTSPOT_NAME><AREA>捷運站</AREA><ADDRESS>臺北市北投區石牌路一段200號(月台往北投方向座位區)</ADDRESS><HOTSPOT_TYPE>Taipei Free免費無線上網熱點(室內)</HOTSPOT_TYPE><LNG>121.515555</LNG><LAT>25.114523</LAT><STATUS>0</STATUS><PICURL>http://free-wifi.taipei/TPE/OpenData.aspx?id=BT050031</PICURL><FLOWURL>http://free-wifi.taipei/TPE/OpenData2.aspx?id=BT050031</FLOWURL><CFLOWURL>http://free-wifi.taipei/TPE/OpenDataCFlow.aspx?id=BT050031</CFLOWURL></hotspot><hotspot><AP_ID>BT050032</AP_ID><HOTSPOT_NAME>石牌站</HOTSPOT_NAME><AREA>捷運站</AREA><ADDRESS>臺北市北投區石牌路一段200號(月台往台北方向座位區)</ADDRESS><HOTSPOT_TYPE>Taipei Free免費無線上網熱點(室內)</HOTSPOT_TYPE><LNG>121.515553</LNG><LAT>25.114523</LAT><STATUS>0</STATUS><PICURL>http://free-wifi.taipei/TPE/OpenData.aspx?id=BT050032</PICURL><FLOWURL>http://free-wifi.taipei/TPE/OpenData2.aspx?id=BT050032</FLOWURL><CFLOWURL>http://free-wifi.taipei/TPE/OpenDataCFlow.aspx?id=BT050032</CFLOWURL></hotspot><hotspot><AP_ID>BT050033</AP_ID><HOTSPOT_NAME>北投站</HOTSPOT_NAME><AREA>捷運站</AREA><ADDRESS>臺北市北投區光明路1號(1號月台往台北方向底)</ADDRESS><HOTSPOT_TYPE>Taipei Free免費無線上網熱點(室內)</HOTSPOT_TYPE><LNG>121.498633</LNG><LAT>25.131841</LAT><STATUS>0</STATUS><PICURL>http://free-wifi.taipei/TPE/OpenData.aspx?id=BT050033</PICURL><FLOWURL>http://free-wifi.taipei/TPE/OpenData2.aspx?id=BT050033</FLOWURL><CFLOWURL>http://free-wifi.taipei/TPE/OpenDataCFlow.aspx?id=BT050033</CFLOWURL></hotspot><hotspot><AP_ID>BT050034</AP_ID><HOTSPOT_NAME>北投站</HOTSPOT_NAME><AREA>捷運站</AREA><ADDRESS>臺北市北投區光明路1號(1號月台往淡水方向底)</ADDRESS><HOTSPOT_TYPE>Taipei Free免費無線上網熱點(室內)</HOTSPOT_TYPE><LNG>121.498635</LNG><LAT>25.131841</LAT><STATUS>0</STATUS><PICURL>http://free-wifi.taipei/TPE/OpenData.aspx?id=BT050034</PICURL><FLOWURL>http://free-wifi.taipei/TPE/OpenData2.aspx?id=BT050034</FLOWURL><CFLOWURL>http://free-wifi.taipei/TPE/OpenDataCFlow.aspx?id=BT050034</CFLOWURL></hotspot><hotspot><AP_ID>BT050035</AP_ID><HOTSPOT_NAME>北投站</HOTSPOT_NAME><AREA>捷運站</AREA><ADDRESS>臺北市北投區光明路1號(1樓出口中間上方)</ADDRESS><HOTSPOT_TYPE>Taipei Free免費無線上網熱點(室內)</HOTSPOT_TYPE><LNG>121.498637</LNG><LAT>25.131841</LAT><STATUS>0</STATUS><PICURL>http://free-wifi.taipei/TPE/OpenData.aspx?id=BT050035</PICURL><FLOWURL>http://free-wifi.taipei/TPE/OpenData2.aspx?id=BT050035</FLOWURL><CFLOWURL>http://free-wifi.taipei/TPE/OpenDataCFlow.aspx?id=BT050035</CFLOWURL></hotspot><hotspot><AP_ID>BT050036</AP_ID><HOTSPOT_NAME>北投站</HOTSPOT_NAME><AREA>捷運站</AREA><ADDRESS>臺北市北投區光明路1號(4號月台往北投方向底)</ADDRESS><HOTSPOT_TYPE>Taipei Free免費無線上網熱點(室內)</HOTSPOT_TYPE><LNG>121.498639</LNG><LAT>25.131841</LAT><STATUS>0</STATUS><PICURL>http://free-wifi.taipei/TPE/OpenData.aspx?id=BT050036</PICURL><FLOWURL>http://free-wifi.taipei/TPE/OpenData2.aspx?id=BT050036</FLOWURL><CFLOWURL>http://free-wifi.taipei/TPE/OpenDataCFlow.aspx?id=BT050036</CFLOWURL></hotspot><hotspot><AP_ID>BT050037</AP_ID><HOTSPOT_NAME>北投站</HOTSPOT_NAME><AREA>捷運站</AREA><ADDRESS>臺北市北投區光明路1號(4號月台往台北方向底)</ADDRESS><HOTSPOT_TYPE>Taipei Free免費無線上網熱點(室內)</HOTSPOT_TYPE><LNG>121.498631</LNG><LAT>25.131841</LAT><STATUS>0</STATUS><PICURL>http://free-wifi.taipei/TPE/OpenData.aspx?id=BT050037</PICURL><FLOWURL>http://free-wifi.taipei/TPE/OpenData2.aspx?id=BT050037</FLOWURL><CFLOWURL>http://free-wifi.taipei/TPE/OpenDataCFlow.aspx?id=BT050037</CFLOWURL></hotspot><hotspot><AP_ID>BT050038</AP_ID><HOTSPOT_NAME>北投站</HOTSPOT_NAME><AREA>捷運站</AREA><ADDRESS>臺北市北投區光明路1號(站內樓梯往淡水方向前上方)</ADDRESS><HOTSPOT_TYPE>Taipei Free免費無線上網熱點(室內)</HOTSPOT_TYPE><LNG>121.498633</LNG><LAT>25.131845</LAT><STATUS>0</STATUS><PICURL>http://free-wifi.taipei/TPE/OpenData.aspx?id=BT050038</PICURL><FLOWURL>http://free-wifi.taipei/TPE/OpenData2.aspx?id=BT050038</FLOWURL><CFLOWURL>http://free-wifi.taipei/TPE/OpenDataCFlow.aspx?id=BT050038</CFLOWURL></hotspot><hotspot><AP_ID>BT050039</AP_ID><HOTSPOT_NAME>明德站</HOTSPOT_NAME><AREA>捷運站</AREA><ADDRESS>臺北市北投區明德路95號(往台北方向月台座位區)</ADDRESS><HOTSPOT_TYPE>Taipei Free免費無線上網熱點(室內)</HOTSPOT_TYPE><LNG>121.518848</LNG><LAT>25.109721</LAT><STATUS>0</STATUS><PICURL>http://free-wifi.taipei/TPE/OpenData.aspx?id=BT050039</PICURL><FLOWURL>http://free-wifi.taipei/TPE/OpenData2.aspx?id=BT050039</FLOWURL><CFLOWURL>http://free-wifi.taipei/TPE/OpenDataCFlow.aspx?id=BT050039</CFLOWURL></hotspot><hotspot><AP_ID>BT050040</AP_ID><HOTSPOT_NAME>明德站</HOTSPOT_NAME><AREA>捷運站</AREA><ADDRESS>臺北市北投區明德路95號(出口右上方)</ADDRESS><HOTSPOT_TYPE>Taipei Free免費無線上網熱點(室內)</HOTSPOT_TYPE><LNG>121.518846</LNG><LAT>25.109721</LAT><STATUS>0</STATUS><PICURL>http://free-wifi.taipei/TPE/OpenData.aspx?id=BT050040</PICURL><FLOWURL>http://free-wifi.taipei/TPE/OpenData2.aspx?id=BT050040</FLOWURL><CFLOWURL>http://free-wifi.taipei/TPE/OpenDataCFlow.aspx?id=BT050040</CFLOWURL></hotspot><hotspot><AP_ID>BT050041</AP_ID><HOTSPOT_NAME>明德站</HOTSPOT_NAME><AREA>捷運站</AREA><ADDRESS>臺北市北投區明德路95號(月台往北投方向座位區)</ADDRESS><HOTSPOT_TYPE>Taipei Free免費無線上網熱點(室內)</HOTSPOT_TYPE><LNG>121.518844</LNG><LAT>25.109721</LAT><STATUS>0</STATUS><PICURL>http://free-wifi.taipei/TPE/OpenData.aspx?id=BT050041</PICURL><FLOWURL>http://free-wifi.taipei/TPE/OpenData2.aspx?id=BT050041</FLOWURL><CFLOWURL>http://free-wifi.taipei/TPE/OpenDataCFlow.aspx?id=BT050041</CFLOWURL></hotspot><hotspot><AP_ID>BT050042</AP_ID><HOTSPOT_NAME>明德站</HOTSPOT_NAME><AREA>捷運站</AREA><ADDRESS>臺北市北投區明德路95號(一樓付費區上網桌前)</ADDRESS><HOTSPOT_TYPE>Taipei Free免費無線上網熱點(室內)</HOTSPOT_TYPE><LNG>121.518842</LNG><LAT>25.109721</LAT><STATUS>0</STATUS><PICURL>http://free-wifi.taipei/TPE/OpenData.aspx?id=BT050042</PICURL><FLOWURL>http://free-wifi.taipei/TPE/OpenData2.aspx?id=BT050042</FLOWURL><CFLOWURL>http://free-wifi.taipei/TPE/OpenDataCFlow.aspx?id=BT050042</CFLOWURL></hotspot><hotspot><AP_ID>BT050043</AP_ID><HOTSPOT_NAME>唭哩岸站</HOTSPOT_NAME><AREA>捷運站</AREA><ADDRESS>臺北市北投區東華街二段301號(1號出口外右上方)</ADDRESS><HOTSPOT_TYPE>Taipei Free免費無線上網熱點(室內)</HOTSPOT_TYPE><LNG>121.506252</LNG><LAT>25.120872</LAT><STATUS>0</STATUS><PICURL>http://free-wifi.taipei/TPE/OpenData.aspx?id=BT050043</PICURL><FLOWURL>http://free-wifi.taipei/TPE/OpenData2.aspx?id=BT050043</FLOWURL><CFLOWURL>http://free-wifi.taipei/TPE/OpenDataCFlow.aspx?id=BT050043</CFLOWURL></hotspot><hotspot><AP_ID>BT050044</AP_ID><HOTSPOT_NAME>唭哩岸站</HOTSPOT_NAME><AREA>捷運站</AREA><ADDRESS>臺北市北投區東華街二段301號(1樓電梯左後方上面)</ADDRESS><HOTSPOT_TYPE>Taipei Free免費無線上網熱點(室內)</HOTSPOT_TYPE><LNG>121.506254</LNG><LAT>25.120872</LAT><STATUS>0</STATUS><PICURL>http://free-wifi.taipei/TPE/OpenData.aspx?id=BT050044</PICURL><FLOWURL>http://free-wifi.taipei/TPE/OpenData2.aspx?id=BT050044</FLOWURL><CFLOWURL>http://free-wifi.taipei/TPE/OpenDataCFlow.aspx?id=BT050044</CFLOWURL></hotspot><hotspot><AP_ID>BT050045</AP_ID><HOTSPOT_NAME>唭哩岸站</HOTSPOT_NAME><AREA>捷運站</AREA><ADDRESS>臺北市北投區東華街二段301號(月台往北投方向座位區)</ADDRESS><HOTSPOT_TYPE>Taipei Free免費無線上網熱點(室內)</HOTSPOT_TYPE><LNG>121.506256</LNG><LAT>25.120872</LAT><STATUS>0</STATUS><PICURL>http://free-wifi.taipei/TPE/OpenData.aspx?id=BT050045</PICURL><FLOWURL>http://free-wifi.taipei/TPE/OpenData2.aspx?id=BT050045</FLOWURL><CFLOWURL>http://free-wifi.taipei/TPE/OpenDataCFlow.aspx?id=BT050045</CFLOWURL></hotspot><hotspot><AP_ID>BT050046</AP_ID><HOTSPOT_NAME>唭哩岸站</HOTSPOT_NAME><AREA>捷運站</AREA><ADDRESS>臺北市北投區東華街二段301號(月台往台北方向座位區)</ADDRESS><HOTSPOT_TYPE>Taipei Free免費無線上網熱點(室內)</HOTSPOT_TYPE><LNG>121.506258</LNG><LAT>25.120872</LAT><STATUS>0</STATUS><PICURL>http://free-wifi.taipei/TPE/OpenData.aspx?id=BT050046</PICURL><FLOWURL>http://free-wifi.taipei/TPE/OpenData2.aspx?id=BT050046</FLOWURL><CFLOWURL>http://free-wifi.taipei/TPE/OpenDataCFlow.aspx?id=BT050046</CFLOWURL></hotspot><hotspot><AP_ID>BT050047</AP_ID><HOTSPOT_NAME>捷運北投會館</HOTSPOT_NAME><AREA>為民服務單位</AREA><ADDRESS>臺北市北投區大業路527巷88號B1F(OK便利商店前)</ADDRESS><HOTSPOT_TYPE>Taipei Free免費無線上網熱點(室內)</HOTSPOT_TYPE><LNG>121.483955</LNG><LAT>25.135798</LAT><STATUS>0</STATUS><PICURL>http://free-wifi.taipei/TPE/OpenData.aspx?id=BT050047</PICURL><FLOWURL>http://free-wifi.taipei/TPE/OpenData2.aspx?id=BT050047</FLOWURL><CFLOWURL>http://free-wifi.taipei/TPE/OpenDataCFlow.aspx?id=BT050047</CFLOWURL></hotspot><hotspot><AP_ID>BT120001</AP_ID><HOTSPOT_NAME>北投區健康服務中心</HOTSPOT_NAME><AREA>健康服務中心</AREA><ADDRESS>臺北市北投區石牌路二段111號(1樓服務台旁上方)</ADDRESS><HOTSPOT_TYPE>Taipei Free免費無線上網熱點(室內)</HOTSPOT_TYPE><LNG>121.517118</LNG><LAT>25.118031</LAT><STATUS>0</STATUS><PICURL>http://free-wifi.taipei/TPE/OpenData.aspx?id=BT120001</PICURL><FLOWURL>http://free-wifi.taipei/TPE/OpenData2.aspx?id=BT120001</FLOWURL><CFLOWURL>http://free-wifi.taipei/TPE/OpenDataCFlow.aspx?id=BT120001</CFLOWURL></hotspot><hotspot><AP_ID>BT130011</AP_ID><HOTSPOT_NAME>北投運動中心</HOTSPOT_NAME><AREA>運動中心</AREA><ADDRESS>臺北市北投區石牌路一段39巷100號(B1大廳天花板)</ADDRESS><HOTSPOT_TYPE>Taipei Free免費無線上網熱點(室內)</HOTSPOT_TYPE><LNG>121.509761</LNG><LAT>25.116471</LAT><STATUS>0</STATUS><PICURL>http://free-wifi.taipei/TPE/OpenData.aspx?id=BT130011</PICURL><FLOWURL>http://free-wifi.taipei/TPE/OpenData2.aspx?id=BT130011</FLOWURL><CFLOWURL>http://free-wifi.taipei/TPE/OpenDataCFlow.aspx?id=BT130011</CFLOWURL></hotspot><hotspot><AP_ID>BT130012</AP_ID><HOTSPOT_NAME>北投運動中心</HOTSPOT_NAME><AREA>運動中心</AREA><ADDRESS>臺北市北投區石牌路一段39巷100號(1樓大廳天花板)</ADDRESS><HOTSPOT_TYPE>Taipei Free免費無線上網熱點(室內)</HOTSPOT_TYPE><LNG>121.509763</LNG><LAT>25.116471</LAT><STATUS>0</STATUS><PICURL>http://free-wifi.taipei/TPE/OpenData.aspx?id=BT130012</PICURL><FLOWURL>http://free-wifi.taipei/TPE/OpenData2.aspx?id=BT130012</FLOWURL><CFLOWURL>http://free-wifi.taipei/TPE/OpenDataCFlow.aspx?id=BT130012</CFLOWURL></hotspot><hotspot><AP_ID>BT130013</AP_ID><HOTSPOT_NAME>北投運動中心</HOTSPOT_NAME><AREA>運動中心</AREA><ADDRESS>臺北市北投區石牌路一段39巷100號(2樓大廳天花板)</ADDRESS><HOTSPOT_TYPE>Taipei Free免費無線上網熱點(室內)</HOTSPOT_TYPE><LNG>121.509765</LNG><LAT>25.116471</LAT><STATUS>0</STATUS><PICURL>http://free-wifi.taipei/TPE/OpenData.aspx?id=BT130013</PICURL><FLOWURL>http://free-wifi.taipei/TPE/OpenData2.aspx?id=BT130013</FLOWURL><CFLOWURL>http://free-wifi.taipei/TPE/OpenDataCFlow.aspx?id=BT130013</CFLOWURL></hotspot><hotspot><AP_ID>BT130014</AP_ID><HOTSPOT_NAME>北投運動中心</HOTSPOT_NAME><AREA>運動中心</AREA><ADDRESS>臺北市北投區石牌路一段39巷100號(3樓大廳天花板)</ADDRESS><HOTSPOT_TYPE>Taipei Free免費無線上網熱點(室內)</HOTSPOT_TYPE><LNG>121.509767</LNG><LAT>25.116471</LAT><STATUS>0</STATUS><PICURL>http://free-wifi.taipei/TPE/OpenData.aspx?id=BT130014</PICURL><FLOWURL>http://free-wifi.taipei/TPE/OpenData2.aspx?id=BT130014</FLOWURL><CFLOWURL>http://free-wifi.taipei/TPE/OpenDataCFlow.aspx?id=BT130014</CFLOWURL></hotspot><hotspot><AP_ID>BT160005</AP_ID><HOTSPOT_NAME>凱達格蘭文化館</HOTSPOT_NAME><AREA>文化場館</AREA><ADDRESS>臺北市北投區中山路3-1號(1樓服務台)</ADDRESS><HOTSPOT_TYPE>Taipei Free免費無線上網熱點(室內)</HOTSPOT_TYPE><LNG>121.505788</LNG><LAT>25.137066</LAT><STATUS>0</STATUS><PICURL>http://free-wifi.taipei/TPE/OpenData.aspx?id=BT160005</PICURL><FLOWURL>http://free-wifi.taipei/TPE/OpenData2.aspx?id=BT160005</FLOWURL><CFLOWURL>http://free-wifi.taipei/TPE/OpenDataCFlow.aspx?id=BT160005</CFLOWURL></hotspot><hotspot><AP_ID>BT160011</AP_ID><HOTSPOT_NAME>關渡自然公園教育中心</HOTSPOT_NAME><AREA>文化場館</AREA><ADDRESS>臺北市北投區關渡路55號(二樓大廳)</ADDRESS><HOTSPOT_TYPE>Taipei Free免費無線上網熱點(室內)</HOTSPOT_TYPE><LNG>121.471646</LNG><LAT>25.119364</LAT><STATUS>0</STATUS><PICURL>http://free-wifi.taipei/TPE/OpenData.aspx?id=BT160011</PICURL><FLOWURL>http://free-wifi.taipei/TPE/OpenData2.aspx?id=BT160011</FLOWURL><CFLOWURL>http://free-wifi.taipei/TPE/OpenDataCFlow.aspx?id=BT160011</CFLOWURL></hotspot><hotspot><AP_ID>BT180001</AP_ID><HOTSPOT_NAME>北投垃圾焚化廠</HOTSPOT_NAME><AREA>垃圾焚化廠</AREA><ADDRESS>臺北市北投區洲美街271號(1F餐飲中心門口)</ADDRESS><HOTSPOT_TYPE>Taipei Free免費無線上網熱點(室內)</HOTSPOT_TYPE><LNG>121.500388</LNG><LAT>25.107804</LAT><STATUS>0</STATUS><PICURL>http://free-wifi.taipei/TPE/OpenData.aspx?id=BT180001</PICURL><FLOWURL>http://free-wifi.taipei/TPE/OpenData2.aspx?id=BT180001</FLOWURL><CFLOWURL>http://free-wifi.taipei/TPE/OpenDataCFlow.aspx?id=BT180001</CFLOWURL></hotspot><hotspot><AP_ID>BT180002</AP_ID><HOTSPOT_NAME>北投垃圾焚化廠</HOTSPOT_NAME><AREA>垃圾焚化廠</AREA><ADDRESS>臺北市北投區洲美街271號(2FK書中心)</ADDRESS><HOTSPOT_TYPE>Taipei Free免費無線上網熱點(室內)</HOTSPOT_TYPE><LNG>121.500386</LNG><LAT>25.107804</LAT><STATUS>0</STATUS><PICURL>http://free-wifi.taipei/TPE/OpenData.aspx?id=BT180002</PICURL><FLOWURL>http://free-wifi.taipei/TPE/OpenData2.aspx?id=BT180002</FLOWURL><CFLOWURL>http://free-wifi.taipei/TPE/OpenDataCFlow.aspx?id=BT180002</CFLOWURL></hotspot><hotspot><AP_ID>BT180003</AP_ID><HOTSPOT_NAME>北投垃圾焚化廠</HOTSPOT_NAME><AREA>垃圾焚化廠</AREA><ADDRESS>臺北市北投區洲美街271號(2F閱覽室樓梯口正上方)</ADDRESS><HOTSPOT_TYPE>Taipei Free免費無線上網熱點(室內)</HOTSPOT_TYPE><LNG>121.500384</LNG><LAT>25.107804</LAT><STATUS>0</STATUS><PICURL>http://free-wifi.taipei/TPE/OpenData.aspx?id=BT180003</PICURL><FLOWURL>http://free-wifi.taipei/TPE/OpenData2.aspx?id=BT180003</FLOWURL><CFLOWURL>http://free-wifi.taipei/TPE/OpenDataCFlow.aspx?id=BT180003</CFLOWURL></hotspot><hotspot><AP_ID>BT220001</AP_ID><HOTSPOT_NAME>北投旅客服務中心</HOTSPOT_NAME><AREA>為民服務單位</AREA><ADDRESS>臺北市北投區中央北路三段185號(大門口大廳中間天花板內)</ADDRESS><HOTSPOT_TYPE>Taipei Free免費無線上網熱點(室內)</HOTSPOT_TYPE><LNG>121.48276</LNG><LAT>25.137258</LAT><STATUS>0</STATUS><PICURL>http://free-wifi.taipei/TPE/OpenData.aspx?id=BT220001</PICURL><FLOWURL>http://free-wifi.taipei/TPE/OpenData2.aspx?id=BT220001</FLOWURL><CFLOWURL>http://free-wifi.taipei/TPE/OpenDataCFlow.aspx?id=BT220001</CFLOWURL></hotspot><hotspot><AP_ID>BT220002</AP_ID><HOTSPOT_NAME>關渡水岸公園自行車租借站</HOTSPOT_NAME><AREA>自行車租借站</AREA><ADDRESS>臺北市北投區知行路，關渡宮北側，關渡碼頭旁(租借站內櫃台桌上)</ADDRESS><HOTSPOT_TYPE>Taipei Free免費無線上網熱點(室內)</HOTSPOT_TYPE><LNG>121.463461</LNG><LAT>25.116998</LAT><STATUS>0</STATUS><PICURL>http://free-wifi.taipei/TPE/OpenData.aspx?id=BT220002</PICURL><FLOWURL>http://free-wifi.taipei/TPE/OpenData2.aspx?id=BT220002</FLOWURL><CFLOWURL>http://free-wifi.taipei/TPE/OpenDataCFlow.aspx?id=BT220002</CFLOWURL></hotspot><hotspot><AP_ID>BT220003</AP_ID><HOTSPOT_NAME>永明工作站</HOTSPOT_NAME><AREA>地政事務所</AREA><ADDRESS>臺北市北投區石牌路二段115號10樓(辦公室內的鐵櫃上面)</ADDRESS><HOTSPOT_TYPE>Taipei Free免費無線上網熱點(室內)</HOTSPOT_TYPE><LNG>121.517174</LNG><LAT>25.118068</LAT><STATUS>0</STATUS><PICURL>http://free-wifi.taipei/TPE/OpenData.aspx?id=BT220003</PICURL><FLOWURL>http://free-wifi.taipei/TPE/OpenData2.aspx?id=BT220003</FLOWURL><CFLOWURL>http://free-wifi.taipei/TPE/OpenDataCFlow.aspx?id=BT220003</CFLOWURL></hotspot><hotspot><AP_ID>BT220007</AP_ID><HOTSPOT_NAME>北區工務所</HOTSPOT_NAME><AREA>新建工程處</AREA><ADDRESS>臺北市北投區致遠三路158號5樓(工務所交換機上)</ADDRESS><HOTSPOT_TYPE>Taipei Free免費無線上網熱點(室內)</HOTSPOT_TYPE><LNG>121.510279</LNG><LAT>25.121768</LAT><STATUS>0</STATUS><PICURL>http://free-wifi.taipei/TPE/OpenData.aspx?id=BT220007</PICURL><FLOWURL>http://free-wifi.taipei/TPE/OpenData2.aspx?id=BT220007</FLOWURL><CFLOWURL>http://free-wifi.taipei/TPE/OpenDataCFlow.aspx?id=BT220007</CFLOWURL></hotspot><hotspot><AP_ID>BT220008</AP_ID><HOTSPOT_NAME>北投就業服務站</HOTSPOT_NAME><AREA>其他</AREA><ADDRESS>臺北市北投區新市街30號5樓(服務櫃檯右側)</ADDRESS><HOTSPOT_TYPE>Taipei Free免費無線上網熱點(室內)</HOTSPOT_TYPE><LNG>121.502693</LNG><LAT>25.132677</LAT><STATUS>0</STATUS><PICURL>http://free-wifi.taipei/TPE/OpenData.aspx?id=BT220008</PICURL><FLOWURL>http://free-wifi.taipei/TPE/OpenData2.aspx?id=BT220008</FLOWURL><CFLOWURL>http://free-wifi.taipei/TPE/OpenDataCFlow.aspx?id=BT220008</CFLOWURL></hotspot><hotspot><AP_ID>BT220009</AP_ID><HOTSPOT_NAME>北投分處</HOTSPOT_NAME><AREA>稅捐稽徵處</AREA><ADDRESS>臺北市北投區新市街30號3樓(北投分處辦公區後方櫃上)</ADDRESS><HOTSPOT_TYPE>Taipei Free免費無線上網熱點(室內)</HOTSPOT_TYPE><LNG>121.502693</LNG><LAT>25.132679</LAT><STATUS>0</STATUS><PICURL>http://free-wifi.taipei/TPE/OpenData.aspx?id=BT220009</PICURL><FLOWURL>http://free-wifi.taipei/TPE/OpenData2.aspx?id=BT220009</FLOWURL><CFLOWURL>http://free-wifi.taipei/TPE/OpenDataCFlow.aspx?id=BT220009</CFLOWURL></hotspot><hotspot><AP_ID>BT220010</AP_ID><HOTSPOT_NAME>浩然敬老院-致和樓</HOTSPOT_NAME><AREA>為民服務單位</AREA><ADDRESS>臺北市北投區知行路75號(1F行管組外走廊)</ADDRESS><HOTSPOT_TYPE>Taipei Free免費無線上網熱點(室內)</HOTSPOT_TYPE><LNG>121.467732</LNG><LAT>25.118366</LAT><STATUS>0</STATUS><PICURL>http://free-wifi.taipei/TPE/OpenData.aspx?id=BT220010</PICURL><FLOWURL>http://free-wifi.taipei/TPE/OpenData2.aspx?id=BT220010</FLOWURL><CFLOWURL>http://free-wifi.taipei/TPE/OpenDataCFlow.aspx?id=BT220010</CFLOWURL></hotspot><hotspot><AP_ID>BT220011</AP_ID><HOTSPOT_NAME>浩然敬老院-致和樓</HOTSPOT_NAME><AREA>為民服務單位</AREA><ADDRESS>臺北市北投區知行路75號(1F大廳)</ADDRESS><HOTSPOT_TYPE>Taipei Free免費無線上網熱點(室內)</HOTSPOT_TYPE><LNG>121.4675</LNG><LAT>25.11838</LAT><STATUS>0</STATUS><PICURL>http://free-wifi.taipei/TPE/OpenData.aspx?id=BT220011</PICURL><FLOWURL>http://free-wifi.taipei/TPE/OpenData2.aspx?id=BT220011</FLOWURL><CFLOWURL>http://free-wifi.taipei/TPE/OpenDataCFlow.aspx?id=BT220011</CFLOWURL></hotspot><hotspot><AP_ID>BT220015</AP_ID><HOTSPOT_NAME>浩然敬老院-致和樓</HOTSPOT_NAME><AREA>為民服務單位</AREA><ADDRESS>臺北市北投區知行路75號(2F交誼廳)</ADDRESS><HOTSPOT_TYPE>Taipei Free免費無線上網熱點(室內)</HOTSPOT_TYPE><LNG>121.467734</LNG><LAT>25.118366</LAT><STATUS>0</STATUS><PICURL>http://free-wifi.taipei/TPE/OpenData.aspx?id=BT220015</PICURL><FLOWURL>http://free-wifi.taipei/TPE/OpenData2.aspx?id=BT220015</FLOWURL><CFLOWURL>http://free-wifi.taipei/TPE/OpenDataCFlow.aspx?id=BT220015</CFLOWURL></hotspot><hotspot><AP_ID>BT220025</AP_ID><HOTSPOT_NAME>浩然敬老院-致中樓</HOTSPOT_NAME><AREA>為民服務單位</AREA><ADDRESS>臺北市北投區知行路75號(1F陶藝教室內)</ADDRESS><HOTSPOT_TYPE>Taipei Free免費無線上網熱點(室內)</HOTSPOT_TYPE><LNG>121.467736</LNG><LAT>25.118366</LAT><STATUS>0</STATUS><PICURL>http://free-wifi.taipei/TPE/OpenData.aspx?id=BT220025</PICURL><FLOWURL>http://free-wifi.taipei/TPE/OpenData2.aspx?id=BT220025</FLOWURL><CFLOWURL>http://free-wifi.taipei/TPE/OpenDataCFlow.aspx?id=BT220025</CFLOWURL></hotspot><hotspot><AP_ID>BT220038</AP_ID><HOTSPOT_NAME>陽明山靈骨塔</HOTSPOT_NAME><AREA>殯葬管理處</AREA><ADDRESS>臺北市北投區泉源路220號(陽明山靈骨塔一樓入口左方格子裝潢上)</ADDRESS><HOTSPOT_TYPE>Taipei Free免費無線上網熱點(室內)</HOTSPOT_TYPE><LNG>121.527473</LNG><LAT>25.14203</LAT><STATUS>0</STATUS><PICURL>http://free-wifi.taipei/TPE/OpenData.aspx?id=BT220038</PICURL><FLOWURL>http://free-wifi.taipei/TPE/OpenData2.aspx?id=BT220038</FLOWURL><CFLOWURL>http://free-wifi.taipei/TPE/OpenDataCFlow.aspx?id=BT220038</CFLOWURL></hotspot><hotspot><AP_ID>BT220039</AP_ID><HOTSPOT_NAME>陽明山臻愛樓</HOTSPOT_NAME><AREA>殯葬管理處</AREA><ADDRESS>臺北市北投區泉源路220號(陽明山臻愛樓一樓中央天花板上)</ADDRESS><HOTSPOT_TYPE>Taipei Free免費無線上網熱點(室內)</HOTSPOT_TYPE><LNG>121.527475</LNG><LAT>25.14203</LAT><STATUS>0</STATUS><PICURL>http://free-wifi.taipei/TPE/OpenData.aspx?id=BT220039</PICURL><FLOWURL>http://free-wifi.taipei/TPE/OpenData2.aspx?id=BT220039</FLOWURL><CFLOWURL>http://free-wifi.taipei/TPE/OpenDataCFlow.aspx?id=BT220039</CFLOWURL></hotspot><hotspot><AP_ID>BT220040</AP_ID><HOTSPOT_NAME>陽明山臻善樓</HOTSPOT_NAME><AREA>殯葬管理處</AREA><ADDRESS>臺北市北投區泉源路220號(陽明山臻善樓一樓中央天花板上)</ADDRESS><HOTSPOT_TYPE>Taipei Free免費無線上網熱點(室內)</HOTSPOT_TYPE><LNG>121.527479</LNG><LAT>25.14203</LAT><STATUS>0</STATUS><PICURL>http://free-wifi.taipei/TPE/OpenData.aspx?id=BT220040</PICURL><FLOWURL>http://free-wifi.taipei/TPE/OpenData2.aspx?id=BT220040</FLOWURL><CFLOWURL>http://free-wifi.taipei/TPE/OpenDataCFlow.aspx?id=BT220040</CFLOWURL></hotspot><hotspot><AP_ID>BT230001</AP_ID><HOTSPOT_NAME>北投市場</HOTSPOT_NAME><AREA>市集</AREA><ADDRESS>臺北市北投區新市街30號(自治會門外上方)</ADDRESS><HOTSPOT_TYPE>Taipei Free免費無線上網熱點(室內)</HOTSPOT_TYPE><LNG>121.503026</LNG><LAT>25.132112</LAT><STATUS>0</STATUS><PICURL>http://free-wifi.taipei/TPE/OpenData.aspx?id=BT230001</PICURL><FLOWURL>http://free-wifi.taipei/TPE/OpenData2.aspx?id=BT230001</FLOWURL><CFLOWURL>http://free-wifi.taipei/TPE/OpenDataCFlow.aspx?id=BT230001</CFLOWURL></hotspot><hotspot><AP_ID>BT240002</AP_ID><HOTSPOT_NAME>忠義停車場</HOTSPOT_NAME><AREA>捷運停車場</AREA><ADDRESS>臺北市北投區中央北路四段301號(收費票亭牆上冷氣左側)</ADDRESS><HOTSPOT_TYPE>Taipei Free免費無線上網熱點(室內)</HOTSPOT_TYPE><LNG>121.473234</LNG><LAT>25.131052</LAT><STATUS>0</STATUS><PICURL>http://free-wifi.taipei/TPE/OpenData.aspx?id=BT240002</PICURL><FLOWURL>http://free-wifi.taipei/TPE/OpenData2.aspx?id=BT240002</FLOWURL><CFLOWURL>http://free-wifi.taipei/TPE/OpenDataCFlow.aspx?id=BT240002</CFLOWURL></hotspot><hotspot><AP_ID>BT240004</AP_ID><HOTSPOT_NAME>捷運石牌站轉乘停車場</HOTSPOT_NAME><AREA>捷運停車場</AREA><ADDRESS>臺北市北投區石牌路一段200號(收費票亭牆上)</ADDRESS><HOTSPOT_TYPE>Taipei Free免費無線上網熱點(室內)</HOTSPOT_TYPE><LNG>121.5142</LNG><LAT>25.11641</LAT><STATUS>0</STATUS><PICURL>http://free-wifi.taipei/TPE/OpenData.aspx?id=BT240004</PICURL><FLOWURL>http://free-wifi.taipei/TPE/OpenData2.aspx?id=BT240004</FLOWURL><CFLOWURL>http://free-wifi.taipei/TPE/OpenDataCFlow.aspx?id=BT240004</CFLOWURL></hotspot><hotspot><AP_ID>BT240005</AP_ID><HOTSPOT_NAME>捷運北投站轉乘停車場</HOTSPOT_NAME><AREA>捷運停車場</AREA><ADDRESS>臺北市北投區光明路1號(收費票亭牆上)</ADDRESS><HOTSPOT_TYPE>Taipei Free免費無線上網熱點(室內)</HOTSPOT_TYPE><LNG>121.4996</LNG><LAT>25.13053</LAT><STATUS>0</STATUS><PICURL>http://free-wifi.taipei/TPE/OpenData.aspx?id=BT240005</PICURL><FLOWURL>http://free-wifi.taipei/TPE/OpenData2.aspx?id=BT240005</FLOWURL><CFLOWURL>http://free-wifi.taipei/TPE/OpenDataCFlow.aspx?id=BT240005</CFLOWURL></hotspot><hotspot><AP_ID>BT240006</AP_ID><HOTSPOT_NAME>捷運唭哩岸站轉乘停車場</HOTSPOT_NAME><AREA>捷運停車場</AREA><ADDRESS>臺北市北投區東華街二段301號(收費票亭牆上)</ADDRESS><HOTSPOT_TYPE>Taipei Free免費無線上網熱點(室內)</HOTSPOT_TYPE><LNG>121.5051</LNG><LAT>25.12114</LAT><STATUS>0</STATUS><PICURL>http://free-wifi.taipei/TPE/OpenData.aspx?id=BT240006</PICURL><FLOWURL>http://free-wifi.taipei/TPE/OpenData2.aspx?id=BT240006</FLOWURL><CFLOWURL>http://free-wifi.taipei/TPE/OpenDataCFlow.aspx?id=BT240006</CFLOWURL></hotspot><hotspot><AP_ID>BT240007</AP_ID><HOTSPOT_NAME>大業立體停車場(機械)</HOTSPOT_NAME><AREA>公有停車場</AREA><ADDRESS>臺北市北投區大業路745號(螢幕櫃後方)</ADDRESS><HOTSPOT_TYPE>Taipei Free免費無線上網熱點(室內)</HOTSPOT_TYPE><LNG>121.502992</LNG><LAT>25.13761</LAT><STATUS>0</STATUS><PICURL>http://free-wifi.taipei/TPE/OpenData.aspx?id=BT240007</PICURL><FLOWURL>http://free-wifi.taipei/TPE/OpenData2.aspx?id=BT240007</FLOWURL><CFLOWURL>http://free-wifi.taipei/TPE/OpenDataCFlow.aspx?id=BT240007</CFLOWURL></hotspot><hotspot><AP_ID>BT240008</AP_ID><HOTSPOT_NAME>大豐公園地下停車場</HOTSPOT_NAME><AREA>公有停車場</AREA><ADDRESS>臺北市北投區大興街145號B1F(辦公室內)</ADDRESS><HOTSPOT_TYPE>Taipei Free免費無線上網熱點(室內)</HOTSPOT_TYPE><LNG>121.504236</LNG><LAT>25.131107</LAT><STATUS>0</STATUS><PICURL>http://free-wifi.taipei/TPE/OpenData.aspx?id=BT240008</PICURL><FLOWURL>http://free-wifi.taipei/TPE/OpenData2.aspx?id=BT240008</FLOWURL><CFLOWURL>http://free-wifi.taipei/TPE/OpenDataCFlow.aspx?id=BT240008</CFLOWURL></hotspot><hotspot><AP_ID>BT240009</AP_ID><HOTSPOT_NAME>振興公園地下停車場</HOTSPOT_NAME><AREA>公有停車場</AREA><ADDRESS>臺北市北投區天母西路112號B1F(管理室小茶几上面)</ADDRESS><HOTSPOT_TYPE>Taipei Free免費無線上網熱點(室內)</HOTSPOT_TYPE><LNG>121.52324</LNG><LAT>25.118792</LAT><STATUS>0</STATUS><PICURL>http://free-wifi.taipei/TPE/OpenData.aspx?id=BT240009</PICURL><FLOWURL>http://free-wifi.taipei/TPE/OpenData2.aspx?id=BT240009</FLOWURL><CFLOWURL>http://free-wifi.taipei/TPE/OpenDataCFlow.aspx?id=BT240009</CFLOWURL></hotspot><hotspot><AP_ID>BT240010</AP_ID><HOTSPOT_NAME>七星公園地下停車場</HOTSPOT_NAME><AREA>公有停車場</AREA><ADDRESS>臺北市北投區光明路225號B1F(辦公桌上)</ADDRESS><HOTSPOT_TYPE>Taipei Free免費無線上網熱點(室內)</HOTSPOT_TYPE><LNG>121.5023</LNG><LAT>25.13664</LAT><STATUS>0</STATUS><PICURL>http://free-wifi.taipei/TPE/OpenData.aspx?id=BT240010</PICURL><FLOWURL>http://free-wifi.taipei/TPE/OpenData2.aspx?id=BT240010</FLOWURL><CFLOWURL>http://free-wifi.taipei/TPE/OpenDataCFlow.aspx?id=BT240010</CFLOWURL></hotspot><hotspot><AP_ID>BT240012</AP_ID><HOTSPOT_NAME>石牌國小地下停車場</HOTSPOT_NAME><AREA>公有停車場</AREA><ADDRESS>臺北市北投區致遠二路80號B1F(管理室內)</ADDRESS><HOTSPOT_TYPE>Taipei Free免費無線上網熱點(室內)</HOTSPOT_TYPE><LNG>121.511757</LNG><LAT>25.115729</LAT><STATUS>0</STATUS><PICURL>http://free-wifi.taipei/TPE/OpenData.aspx?id=BT240012</PICURL><FLOWURL>http://free-wifi.taipei/TPE/OpenData2.aspx?id=BT240012</FLOWURL><CFLOWURL>http://free-wifi.taipei/TPE/OpenDataCFlow.aspx?id=BT240012</CFLOWURL></hotspot><hotspot><AP_ID>BT240013</AP_ID><HOTSPOT_NAME>陽明山立體停車場</HOTSPOT_NAME><AREA>公有停車場</AREA><ADDRESS>臺北市北投區湖山路陽明山公園大門口旁(1F管理室外)</ADDRESS><HOTSPOT_TYPE>Taipei Free免費無線上網熱點(室內)</HOTSPOT_TYPE><LNG>121.539611</LNG><LAT>25.156751</LAT><STATUS>0</STATUS><PICURL>http://free-wifi.taipei/TPE/OpenData.aspx?id=BT240013</PICURL><FLOWURL>http://free-wifi.taipei/TPE/OpenData2.aspx?id=BT240013</FLOWURL><CFLOWURL>http://free-wifi.taipei/TPE/OpenDataCFlow.aspx?id=BT240013</CFLOWURL></hotspot><hotspot><AP_ID>BT250001</AP_ID><HOTSPOT_NAME>桃源國中</HOTSPOT_NAME><AREA>各級學校</AREA><ADDRESS>臺北市北投區中央北路四段48號(2F教務處外走廊天花板上方)</ADDRESS><HOTSPOT_TYPE>Taipei Free免費無線上網熱點(室內)</HOTSPOT_TYPE><LNG>121.477321</LNG><LAT>25.134744</LAT><STATUS>0</STATUS><PICURL>http://free-wifi.taipei/TPE/OpenData.aspx?id=BT250001</PICURL><FLOWURL>http://free-wifi.taipei/TPE/OpenData2.aspx?id=BT250001</FLOWURL><CFLOWURL>http://free-wifi.taipei/TPE/OpenDataCFlow.aspx?id=BT250001</CFLOWURL></hotspot><hotspot><AP_ID>BT250002</AP_ID><HOTSPOT_NAME>關渡國小</HOTSPOT_NAME><AREA>各級學校</AREA><ADDRESS>臺北市北投區中央北路四段581號(2F動物救援隊右邊櫃子上方)</ADDRESS><HOTSPOT_TYPE>Taipei Free免費無線上網熱點(室內)</HOTSPOT_TYPE><LNG>121.466845</LNG><LAT>25.126849</LAT><STATUS>0</STATUS><PICURL>http://free-wifi.taipei/TPE/OpenData.aspx?id=BT250002</PICURL><FLOWURL>http://free-wifi.taipei/TPE/OpenData2.aspx?id=BT250002</FLOWURL><CFLOWURL>http://free-wifi.taipei/TPE/OpenDataCFlow.aspx?id=BT250002</CFLOWURL></hotspot><hotspot><AP_ID>BT250003</AP_ID><HOTSPOT_NAME>中正高中</HOTSPOT_NAME><AREA>各級學校</AREA><ADDRESS>臺北市北投區文林北路77號(美齡樓2樓網管機房冷氣旁)</ADDRESS><HOTSPOT_TYPE>Taipei Free免費無線上網熱點(室內)</HOTSPOT_TYPE><LNG>121.516608</LNG><LAT>25.104412</LAT><STATUS>0</STATUS><PICURL>http://free-wifi.taipei/TPE/OpenData.aspx?id=BT250003</PICURL><FLOWURL>http://free-wifi.taipei/TPE/OpenData2.aspx?id=BT250003</FLOWURL><CFLOWURL>http://free-wifi.taipei/TPE/OpenDataCFlow.aspx?id=BT250003</CFLOWURL></hotspot><hotspot><AP_ID>BT290001</AP_ID><HOTSPOT_NAME>北投溫泉博物館</HOTSPOT_NAME><AREA>文化場館</AREA><ADDRESS>臺北市北投區中山路2號(1F樓梯往H區走道天花板上)</ADDRESS><HOTSPOT_TYPE>Taipei Free免費無線上網熱點(室內)</HOTSPOT_TYPE><LNG>121.507149</LNG><LAT>25.136692</LAT><STATUS>0</STATUS><PICURL>http://free-wifi.taipei/TPE/OpenData.aspx?id=BT290001</PICURL><FLOWURL>http://free-wifi.taipei/TPE/OpenData2.aspx?id=BT290001</FLOWURL><CFLOWURL>http://free-wifi.taipei/TPE/OpenDataCFlow.aspx?id=BT290001</CFLOWURL></hotspot><hotspot><AP_ID>BT290002</AP_ID><HOTSPOT_NAME>北投溫泉博物館</HOTSPOT_NAME><AREA>文化場館</AREA><ADDRESS>臺北市北投區中山路2號(1FB區走道造景天花板上)</ADDRESS><HOTSPOT_TYPE>Taipei Free免費無線上網熱點(室內)</HOTSPOT_TYPE><LNG>121.507147</LNG><LAT>25.136692</LAT><STATUS>0</STATUS><PICURL>http://free-wifi.taipei/TPE/OpenData.aspx?id=BT290002</PICURL><FLOWURL>http://free-wifi.taipei/TPE/OpenData2.aspx?id=BT290002</FLOWURL><CFLOWURL>http://free-wifi.taipei/TPE/OpenDataCFlow.aspx?id=BT290002</CFLOWURL></hotspot><hotspot><AP_ID>BT290003</AP_ID><HOTSPOT_NAME>北投溫泉博物館</HOTSPOT_NAME><AREA>文化場館</AREA><ADDRESS>臺北市北投區中山路2號(2F大門入口處天花板上)</ADDRESS><HOTSPOT_TYPE>Taipei Free免費無線上網熱點(室內)</HOTSPOT_TYPE><LNG>121.507145</LNG><LAT>25.136692</LAT><STATUS>0</STATUS><PICURL>http://free-wifi.taipei/TPE/OpenData.aspx?id=BT290003</PICURL><FLOWURL>http://free-wifi.taipei/TPE/OpenData2.aspx?id=BT290003</FLOWURL><CFLOWURL>http://free-wifi.taipei/TPE/OpenDataCFlow.aspx?id=BT290003</CFLOWURL></hotspot><hotspot><AP_ID>BT290004</AP_ID><HOTSPOT_NAME>北投溫泉博物館</HOTSPOT_NAME><AREA>文化場館</AREA><ADDRESS>臺北市北投區中山路2號(2FE區戶外空間外牆上)</ADDRESS><HOTSPOT_TYPE>Taipei Free免費無線上網熱點(室內)</HOTSPOT_TYPE><LNG>121.507143</LNG><LAT>25.136692</LAT><STATUS>0</STATUS><PICURL>http://free-wifi.taipei/TPE/OpenData.aspx?id=BT290004</PICURL><FLOWURL>http://free-wifi.taipei/TPE/OpenData2.aspx?id=BT290004</FLOWURL><CFLOWURL>http://free-wifi.taipei/TPE/OpenDataCFlow.aspx?id=BT290004</CFLOWURL></hotspot><hotspot><AP_ID>BT300001</AP_ID><HOTSPOT_NAME>北投文化區民活動中心</HOTSPOT_NAME><AREA>區民活動中心</AREA><ADDRESS>臺北市北投區文化三路3號4,5樓(中央天花板上)</ADDRESS><HOTSPOT_TYPE>Taipei Free免費無線上網熱點(室內)</HOTSPOT_TYPE><LNG>121.496231</LNG><LAT>25.136692</LAT><STATUS>0</STATUS><PICURL>http://free-wifi.taipei/TPE/OpenData.aspx?id=BT300001</PICURL><FLOWURL>http://free-wifi.taipei/TPE/OpenData2.aspx?id=BT300001</FLOWURL><CFLOWURL>http://free-wifi.taipei/TPE/OpenDataCFlow.aspx?id=BT300001</CFLOWURL></hotspot><hotspot><AP_ID>BT300002</AP_ID><HOTSPOT_NAME>北投關渡區民活動中心</HOTSPOT_NAME><AREA>區民活動中心</AREA><ADDRESS>臺北市北投區大度路3段301巷1號(進去右側上方天花板上)</ADDRESS><HOTSPOT_TYPE>Taipei Free免費無線上網熱點(室內)</HOTSPOT_TYPE><LNG>121.466321</LNG><LAT>25.12311</LAT><STATUS>0</STATUS><PICURL>http://free-wifi.taipei/TPE/OpenData.aspx?id=BT300002</PICURL><FLOWURL>http://free-wifi.taipei/TPE/OpenData2.aspx?id=BT300002</FLOWURL><CFLOWURL>http://free-wifi.taipei/TPE/OpenDataCFlow.aspx?id=BT300002</CFLOWURL></hotspot><hotspot><AP_ID>DA020001</AP_ID><HOTSPOT_NAME>大安區行政中心</HOTSPOT_NAME><AREA>區行政中心</AREA><ADDRESS>臺北市大安區新生南路二段86號1樓(9號服務台上方)</ADDRESS><HOTSPOT_TYPE>Taipei Free免費無線上網熱點(室內)</HOTSPOT_TYPE><LNG>121.534511</LNG><LAT>25.026421</LAT><STATUS>0</STATUS><PICURL>http://free-wifi.taipei/TPE/OpenData.aspx?id=DA020001</PICURL><FLOWURL>http://free-wifi.taipei/TPE/OpenData2.aspx?id=DA020001</FLOWURL><CFLOWURL>http://free-wifi.taipei/TPE/OpenDataCFlow.aspx?id=DA020001</CFLOWURL></hotspot><hotspot><AP_ID>DA020002</AP_ID><HOTSPOT_NAME>大安區行政中心</HOTSPOT_NAME><AREA>區行政中心</AREA><ADDRESS>臺北市大安區新生南路二段86號2樓(電梯出來喇叭與電燈中間)</ADDRESS><HOTSPOT_TYPE>Taipei Free免費無線上網熱點(室內)</HOTSPOT_TYPE><LNG>121.534513</LNG><LAT>25.026421</LAT><STATUS>0</STATUS><PICURL>http://free-wifi.taipei/TPE/OpenData.aspx?id=DA020002</PICURL><FLOWURL>http://free-wifi.taipei/TPE/OpenData2.aspx?id=DA020002</FLOWURL><CFLOWURL>http://free-wifi.taipei/TPE/OpenDataCFlow.aspx?id=DA020002</CFLOWURL></hotspot><hotspot><AP_ID>DA020003</AP_ID><HOTSPOT_NAME>大安區行政中心</HOTSPOT_NAME><AREA>區行政中心</AREA><ADDRESS>臺北市大安區新生南路二段86號3樓(門口進入圓型座位區上方)</ADDRESS><HOTSPOT_TYPE>Taipei Free免費無線上網熱點(室內)</HOTSPOT_TYPE><LNG>121.534515</LNG><LAT>25.026421</LAT><STATUS>0</STATUS><PICURL>http://free-wifi.taipei/TPE/OpenData.aspx?id=DA020003</PICURL><FLOWURL>http://free-wifi.taipei/TPE/OpenData2.aspx?id=DA020003</FLOWURL><CFLOWURL>http://free-wifi.taipei/TPE/OpenDataCFlow.aspx?id=DA020003</CFLOWURL></hotspot><hotspot><AP_ID>DA020004</AP_ID><HOTSPOT_NAME>大安區行政中心</HOTSPOT_NAME><AREA>區行政中心</AREA><ADDRESS>臺北市大安區新生南路二段86號8樓(進門民眾休息區第一排座位上方)</ADDRESS><HOTSPOT_TYPE>Taipei Free免費無線上網熱點(室內)</HOTSPOT_TYPE><LNG>121.534517</LNG><LAT>25.026421</LAT><STATUS>0</STATUS><PICURL>http://free-wifi.taipei/TPE/OpenData.aspx?id=DA020004</PICURL><FLOWURL>http://free-wifi.taipei/TPE/OpenData2.aspx?id=DA020004</FLOWURL><CFLOWURL>http://free-wifi.taipei/TPE/OpenDataCFlow.aspx?id=DA020004</CFLOWURL></hotspot><hotspot><AP_ID>DA020005</AP_ID><HOTSPOT_NAME>大安區行政中心</HOTSPOT_NAME><AREA>區行政中心</AREA><ADDRESS>臺北市大安區新生南路二段86號9樓(門口進入右邊第一個通風口旁)</ADDRESS><HOTSPOT_TYPE>Taipei Free免費無線上網熱點(室內)</HOTSPOT_TYPE><LNG>121.534519</LNG><LAT>25.026421</LAT><STATUS>0</STATUS><PICURL>http://free-wifi.taipei/TPE/OpenData.aspx?id=DA020005</PICURL><FLOWURL>http://free-wifi.taipei/TPE/OpenData2.aspx?id=DA020005</FLOWURL><CFLOWURL>http://free-wifi.taipei/TPE/OpenDataCFlow.aspx?id=DA020005</CFLOWURL></hotspot><hotspot><AP_ID>DA030001</AP_ID><HOTSPOT_NAME>龍安民眾閱覽室</HOTSPOT_NAME><AREA>閱覽室</AREA><ADDRESS>臺北市大安區永康街60號2樓(期刊區上方)</ADDRESS><HOTSPOT_TYPE>Taipei Free免費無線上網熱點(室內)</HOTSPOT_TYPE><LNG>121.529601</LNG><LAT>25.028559</LAT><STATUS>0</STATUS><PICURL>http://free-wifi.taipei/TPE/OpenData.aspx?id=DA030001</PICURL><FLOWURL>http://free-wifi.taipei/TPE/OpenData2.aspx?id=DA030001</FLOWURL><CFLOWURL>http://free-wifi.taipei/TPE/OpenDataCFlow.aspx?id=DA030001</CFLOWURL></hotspot><hotspot><AP_ID>DA030002</AP_ID><HOTSPOT_NAME>龍安民眾閱覽室</HOTSPOT_NAME><AREA>閱覽室</AREA><ADDRESS>臺北市大安區永康街60號3樓(自修室中央上方處)</ADDRESS><HOTSPOT_TYPE>Taipei Free免費無線上網熱點(室內)</HOTSPOT_TYPE><LNG>121.529603</LNG><LAT>25.028559</LAT><STATUS>0</STATUS><PICURL>http://free-wifi.taipei/TPE/OpenData.aspx?id=DA030002</PICURL><FLOWURL>http://free-wifi.taipei/TPE/OpenData2.aspx?id=DA030002</FLOWURL><CFLOWURL>http://free-wifi.taipei/TPE/OpenDataCFlow.aspx?id=DA030002</CFLOWURL></hotspot><hotspot><AP_ID>DA030003</AP_ID><HOTSPOT_NAME>道藩分館</HOTSPOT_NAME><AREA>圖書館</AREA><ADDRESS>臺北市大安區辛亥路三段11號3樓(閱覽區後方靠書庫區上方天花板)</ADDRESS><HOTSPOT_TYPE>Taipei Free免費無線上網熱點(室內)</HOTSPOT_TYPE><LNG>121.544049</LNG><LAT>25.021577</LAT><STATUS>0</STATUS><PICURL>http://free-wifi.taipei/TPE/OpenData.aspx?id=DA030003</PICURL><FLOWURL>http://free-wifi.taipei/TPE/OpenData2.aspx?id=DA030003</FLOWURL><CFLOWURL>http://free-wifi.taipei/TPE/OpenDataCFlow.aspx?id=DA030003</CFLOWURL></hotspot><hotspot><AP_ID>DA030004</AP_ID><HOTSPOT_NAME>道藩分館</HOTSPOT_NAME><AREA>圖書館</AREA><ADDRESS>臺北市大安區辛亥路三段11號3樓(綜合服務台前方資訊檢索區吊牌旁)</ADDRESS><HOTSPOT_TYPE>Taipei Free免費無線上網熱點(室內)</HOTSPOT_TYPE><LNG>121.544048</LNG><LAT>25.021577</LAT><STATUS>0</STATUS><PICURL>http://free-wifi.taipei/TPE/OpenData.aspx?id=DA030004</PICURL><FLOWURL>http://free-wifi.taipei/TPE/OpenData2.aspx?id=DA030004</FLOWURL><CFLOWURL>http://free-wifi.taipei/TPE/OpenDataCFlow.aspx?id=DA030004</CFLOWURL></hotspot><hotspot><AP_ID>DA030005</AP_ID><HOTSPOT_NAME>大安分館</HOTSPOT_NAME><AREA>圖書館</AREA><ADDRESS>臺北市大安區辛亥路三段223號4樓(期刊室之中心位置上方，臨中央柱子)</ADDRESS><HOTSPOT_TYPE>Taipei Free免費無線上網熱點(室內)</HOTSPOT_TYPE><LNG>121.550788</LNG><LAT>25.016022</LAT><STATUS>0</STATUS><PICURL>http://free-wifi.taipei/TPE/OpenData.aspx?id=DA030005</PICURL><FLOWURL>http://free-wifi.taipei/TPE/OpenData2.aspx?id=DA030005</FLOWURL><CFLOWURL>http://free-wifi.taipei/TPE/OpenDataCFlow.aspx?id=DA030005</CFLOWURL></hotspot><hotspot><AP_ID>DA030006</AP_ID><HOTSPOT_NAME>大安分館</HOTSPOT_NAME><AREA>圖書館</AREA><ADDRESS>臺北市大安區辛亥路三段223號4樓(閱覽室前段中間位置上方)</ADDRESS><HOTSPOT_TYPE>Taipei Free免費無線上網熱點(室內)</HOTSPOT_TYPE><LNG>121.550787</LNG><LAT>25.016022</LAT><STATUS>0</STATUS><PICURL>http://free-wifi.taipei/TPE/OpenData.aspx?id=DA030006</PICURL><FLOWURL>http://free-wifi.taipei/TPE/OpenData2.aspx?id=DA030006</FLOWURL><CFLOWURL>http://free-wifi.taipei/TPE/OpenDataCFlow.aspx?id=DA030006</CFLOWURL></hotspot><hotspot><AP_ID>DA030007</AP_ID><HOTSPOT_NAME>大安分館</HOTSPOT_NAME><AREA>圖書館</AREA><ADDRESS>臺北市大安區辛亥路三段223號5樓(自修室之中心位置)</ADDRESS><HOTSPOT_TYPE>Taipei Free免費無線上網熱點(室內)</HOTSPOT_TYPE><LNG>121.550787</LNG><LAT>25.016021</LAT><STATUS>0</STATUS><PICURL>http://free-wifi.taipei/TPE/OpenData.aspx?id=DA030007</PICURL><FLOWURL>http://free-wifi.taipei/TPE/OpenData2.aspx?id=DA030007</FLOWURL><CFLOWURL>http://free-wifi.taipei/TPE/OpenDataCFlow.aspx?id=DA030007</CFLOWURL></hotspot><hotspot><AP_ID>DA030009</AP_ID><HOTSPOT_NAME>成功民眾閱覽室</HOTSPOT_NAME><AREA>閱覽室</AREA><ADDRESS>臺北市大安區和平東路二段311巷29號4樓(參考資料書櫃4A上方)</ADDRESS><HOTSPOT_TYPE>Taipei Free免費無線上網熱點(室內)</HOTSPOT_TYPE><LNG>121.545211</LNG><LAT>25.025442</LAT><STATUS>0</STATUS><PICURL>http://free-wifi.taipei/TPE/OpenData.aspx?id=DA030009</PICURL><FLOWURL>http://free-wifi.taipei/TPE/OpenData2.aspx?id=DA030009</FLOWURL><CFLOWURL>http://free-wifi.taipei/TPE/OpenDataCFlow.aspx?id=DA030009</CFLOWURL></hotspot><hotspot><AP_ID>DA030010</AP_ID><HOTSPOT_NAME>延吉民眾閱覽室</HOTSPOT_NAME><AREA>閱覽室</AREA><ADDRESS>臺北市大安區延吉街236巷17號3樓(過期報紙區、書庫區與網路查詢區之橫樑上)</ADDRESS><HOTSPOT_TYPE>Taipei Free免費無線上網熱點(室內)</HOTSPOT_TYPE><LNG>121.555025</LNG><LAT>25.036117</LAT><STATUS>0</STATUS><PICURL>http://free-wifi.taipei/TPE/OpenData.aspx?id=DA030010</PICURL><FLOWURL>http://free-wifi.taipei/TPE/OpenData2.aspx?id=DA030010</FLOWURL><CFLOWURL>http://free-wifi.taipei/TPE/OpenDataCFlow.aspx?id=DA030010</CFLOWURL></hotspot><hotspot><AP_ID>DA030011</AP_ID><HOTSPOT_NAME>延吉民眾閱覽室</HOTSPOT_NAME><AREA>閱覽室</AREA><ADDRESS>臺北市大安區延吉街236巷17號4樓(自修區由大門入口右前方之樑上)</ADDRESS><HOTSPOT_TYPE>Taipei Free免費無線上網熱點(室內)</HOTSPOT_TYPE><LNG>121.555028</LNG><LAT>25.036117</LAT><STATUS>0</STATUS><PICURL>http://free-wifi.taipei/TPE/OpenData.aspx?id=DA030011</PICURL><FLOWURL>http://free-wifi.taipei/TPE/OpenData2.aspx?id=DA030011</FLOWURL><CFLOWURL>http://free-wifi.taipei/TPE/OpenDataCFlow.aspx?id=DA030011</CFLOWURL></hotspot><hotspot><AP_ID>DA030012</AP_ID><HOTSPOT_NAME>總館</HOTSPOT_NAME><AREA>圖書館</AREA><ADDRESS>臺北市大安區建國南路二段125號10樓(會議室(一)門口與通往館史室、貴賓室之走道轉角處上方)</ADDRESS><HOTSPOT_TYPE>Taipei Free免費無線上網熱點(室內)</HOTSPOT_TYPE><LNG>121.538368</LNG><LAT>25.029152</LAT><STATUS>0</STATUS><PICURL>http://free-wifi.taipei/TPE/OpenData.aspx?id=DA030012</PICURL><FLOWURL>http://free-wifi.taipei/TPE/OpenData2.aspx?id=DA030012</FLOWURL><CFLOWURL>http://free-wifi.taipei/TPE/OpenDataCFlow.aspx?id=DA030012</CFLOWURL></hotspot><hotspot><AP_ID>DA030013</AP_ID><HOTSPOT_NAME>總館</HOTSPOT_NAME><AREA>圖書館</AREA><ADDRESS>臺北市大安區建國南路二段125號11樓(往研習教室之走道轉角處上方位置)</ADDRESS><HOTSPOT_TYPE>Taipei Free免費無線上網熱點(室內)</HOTSPOT_TYPE><LNG>121.538367</LNG><LAT>25.029152</LAT><STATUS>0</STATUS><PICURL>http://free-wifi.taipei/TPE/OpenData.aspx?id=DA030013</PICURL><FLOWURL>http://free-wifi.taipei/TPE/OpenData2.aspx?id=DA030013</FLOWURL><CFLOWURL>http://free-wifi.taipei/TPE/OpenDataCFlow.aspx?id=DA030013</CFLOWURL></hotspot><hotspot><AP_ID>DA030014</AP_ID><HOTSPOT_NAME>總館</HOTSPOT_NAME><AREA>圖書館</AREA><ADDRESS>臺北市大安區建國南路二段125號1樓(大門入口處右前方之樑柱上方位置)</ADDRESS><HOTSPOT_TYPE>Taipei Free免費無線上網熱點(室內)</HOTSPOT_TYPE><LNG>121.538366</LNG><LAT>25.029152</LAT><STATUS>0</STATUS><PICURL>http://free-wifi.taipei/TPE/OpenData.aspx?id=DA030014</PICURL><FLOWURL>http://free-wifi.taipei/TPE/OpenData2.aspx?id=DA030014</FLOWURL><CFLOWURL>http://free-wifi.taipei/TPE/OpenDataCFlow.aspx?id=DA030014</CFLOWURL></hotspot><hotspot><AP_ID>DA030015</AP_ID><HOTSPOT_NAME>總館</HOTSPOT_NAME><AREA>圖書館</AREA><ADDRESS>臺北市大安區建國南路二段125號2樓(期刊室內後方往盥洗室之樑柱上)</ADDRESS><HOTSPOT_TYPE>Taipei Free免費無線上網熱點(室內)</HOTSPOT_TYPE><LNG>121.538369</LNG><LAT>25.029151</LAT><STATUS>0</STATUS><PICURL>http://free-wifi.taipei/TPE/OpenData.aspx?id=DA030015</PICURL><FLOWURL>http://free-wifi.taipei/TPE/OpenData2.aspx?id=DA030015</FLOWURL><CFLOWURL>http://free-wifi.taipei/TPE/OpenDataCFlow.aspx?id=DA030015</CFLOWURL></hotspot><hotspot><AP_ID>DA030016</AP_ID><HOTSPOT_NAME>總館</HOTSPOT_NAME><AREA>圖書館</AREA><ADDRESS>臺北市大安區建國南路二段125號3樓(諮詢服務課內之自修區後方之樑柱上)</ADDRESS><HOTSPOT_TYPE>Taipei Free免費無線上網熱點(室內)</HOTSPOT_TYPE><LNG>121.538369</LNG><LAT>25.029153</LAT><STATUS>0</STATUS><PICURL>http://free-wifi.taipei/TPE/OpenData.aspx?id=DA030016</PICURL><FLOWURL>http://free-wifi.taipei/TPE/OpenData2.aspx?id=DA030016</FLOWURL><CFLOWURL>http://free-wifi.taipei/TPE/OpenDataCFlow.aspx?id=DA030016</CFLOWURL></hotspot><hotspot><AP_ID>DA030017</AP_ID><HOTSPOT_NAME>總館</HOTSPOT_NAME><AREA>圖書館</AREA><ADDRESS>臺北市大安區建國南路二段125號4樓(閱覽室(一)內之自修區後方之樑柱上)</ADDRESS><HOTSPOT_TYPE>Taipei Free免費無線上網熱點(室內)</HOTSPOT_TYPE><LNG>121.538369</LNG><LAT>25.029154</LAT><STATUS>0</STATUS><PICURL>http://free-wifi.taipei/TPE/OpenData.aspx?id=DA030017</PICURL><FLOWURL>http://free-wifi.taipei/TPE/OpenData2.aspx?id=DA030017</FLOWURL><CFLOWURL>http://free-wifi.taipei/TPE/OpenDataCFlow.aspx?id=DA030017</CFLOWURL></hotspot><hotspot><AP_ID>DA030018</AP_ID><HOTSPOT_NAME>總館</HOTSPOT_NAME><AREA>圖書館</AREA><ADDRESS>臺北市大安區建國南路二段125號5樓(閱覽室(二)內之自修區後方之樑柱上)</ADDRESS><HOTSPOT_TYPE>Taipei Free免費無線上網熱點(室內)</HOTSPOT_TYPE><LNG>121.538369</LNG><LAT>25.029155</LAT><STATUS>0</STATUS><PICURL>http://free-wifi.taipei/TPE/OpenData.aspx?id=DA030018</PICURL><FLOWURL>http://free-wifi.taipei/TPE/OpenData2.aspx?id=DA030018</FLOWURL><CFLOWURL>http://free-wifi.taipei/TPE/OpenDataCFlow.aspx?id=DA030018</CFLOWURL></hotspot><hotspot><AP_ID>DA030019</AP_ID><HOTSPOT_NAME>總館</HOTSPOT_NAME><AREA>圖書館</AREA><ADDRESS>臺北市大安區建國南路二段125號6樓(閱覽室(三)內之自修區後方之樑柱上)</ADDRESS><HOTSPOT_TYPE>Taipei Free免費無線上網熱點(室內)</HOTSPOT_TYPE><LNG>121.538369</LNG><LAT>25.029158</LAT><STATUS>0</STATUS><PICURL>http://free-wifi.taipei/TPE/OpenData.aspx?id=DA030019</PICURL><FLOWURL>http://free-wifi.taipei/TPE/OpenData2.aspx?id=DA030019</FLOWURL><CFLOWURL>http://free-wifi.taipei/TPE/OpenDataCFlow.aspx?id=DA030019</CFLOWURL></hotspot><hotspot><AP_ID>DA030020</AP_ID><HOTSPOT_NAME>總館</HOTSPOT_NAME><AREA>圖書館</AREA><ADDRESS>臺北市大安區建國南路二段125號9樓(原住民資料區中央上方)</ADDRESS><HOTSPOT_TYPE>Taipei Free免費無線上網熱點(室內)</HOTSPOT_TYPE><LNG>121.538368</LNG><LAT>25.029158</LAT><STATUS>0</STATUS><PICURL>http://free-wifi.taipei/TPE/OpenData.aspx?id=DA030020</PICURL><FLOWURL>http://free-wifi.taipei/TPE/OpenData2.aspx?id=DA030020</FLOWURL><CFLOWURL>http://free-wifi.taipei/TPE/OpenDataCFlow.aspx?id=DA030020</CFLOWURL></hotspot><hotspot><AP_ID>DA030021</AP_ID><HOTSPOT_NAME>總館</HOTSPOT_NAME><AREA>圖書館</AREA><ADDRESS>臺北市大安區建國南路二段125號B1(兒童圖書區內指示牌前方造景樑柱上)</ADDRESS><HOTSPOT_TYPE>Taipei Free免費無線上網熱點(室內)</HOTSPOT_TYPE><LNG>121.538367</LNG><LAT>25.029158</LAT><STATUS>0</STATUS><PICURL>http://free-wifi.taipei/TPE/OpenData.aspx?id=DA030021</PICURL><FLOWURL>http://free-wifi.taipei/TPE/OpenData2.aspx?id=DA030021</FLOWURL><CFLOWURL>http://free-wifi.taipei/TPE/OpenDataCFlow.aspx?id=DA030021</CFLOWURL></hotspot><hotspot><AP_ID>DA030022</AP_ID><HOTSPOT_NAME>總館</HOTSPOT_NAME><AREA>圖書館</AREA><ADDRESS>臺北市大安區建國南路二段125號B2(服務檯後方之天花板上)</ADDRESS><HOTSPOT_TYPE>Taipei Free免費無線上網熱點(室內)</HOTSPOT_TYPE><LNG>121.538367</LNG><LAT>25.029154</LAT><STATUS>0</STATUS><PICURL>http://free-wifi.taipei/TPE/OpenData.aspx?id=DA030022</PICURL><FLOWURL>http://free-wifi.taipei/TPE/OpenData2.aspx?id=DA030022</FLOWURL><CFLOWURL>http://free-wifi.taipei/TPE/OpenDataCFlow.aspx?id=DA030022</CFLOWURL></hotspot><hotspot><AP_ID>DA030023</AP_ID><HOTSPOT_NAME>總館</HOTSPOT_NAME><AREA>圖書館</AREA><ADDRESS>臺北市大安區建國南路二段125號(8F資訊視聽走道造型橫木上)</ADDRESS><HOTSPOT_TYPE>Taipei Free免費無線上網熱點(室內)</HOTSPOT_TYPE><LNG>121.538369</LNG><LAT>25.029152</LAT><STATUS>0</STATUS><PICURL>http://free-wifi.taipei/TPE/OpenData.aspx?id=DA030023</PICURL><FLOWURL>http://free-wifi.taipei/TPE/OpenData2.aspx?id=DA030023</FLOWURL><CFLOWURL>http://free-wifi.taipei/TPE/OpenDataCFlow.aspx?id=DA030023</CFLOWURL></hotspot><hotspot><AP_ID>DA030024</AP_ID><HOTSPOT_NAME>大安分館</HOTSPOT_NAME><AREA>圖書館</AREA><ADDRESS>臺北市大安區辛亥路三段223號5樓(筆電區上方)</ADDRESS><HOTSPOT_TYPE>Taipei Free免費無線上網熱點(室內)</HOTSPOT_TYPE><LNG>121.550788</LNG><LAT>25.016029</LAT><STATUS>0</STATUS><PICURL>http://free-wifi.taipei/TPE/OpenData.aspx?id=DA030024</PICURL><FLOWURL>http://free-wifi.taipei/TPE/OpenData2.aspx?id=DA030024</FLOWURL><CFLOWURL>http://free-wifi.taipei/TPE/OpenDataCFlow.aspx?id=DA030024</CFLOWURL></hotspot><hotspot><AP_ID>DA040001</AP_ID><HOTSPOT_NAME>仁愛院區</HOTSPOT_NAME><AREA>仁愛院區</AREA><ADDRESS>臺北市大安區仁愛路四段10號(南棟大樓1樓(大門口中間【牙科】))</ADDRESS><HOTSPOT_TYPE>Taipei Free免費無線上網熱點(室內)</HOTSPOT_TYPE><LNG>121.545219</LNG><LAT>25.037513</LAT><STATUS>0</STATUS><PICURL>http://free-wifi.taipei/TPE/OpenData.aspx?id=DA040001</PICURL><FLOWURL>http://free-wifi.taipei/TPE/OpenData2.aspx?id=DA040001</FLOWURL><CFLOWURL>http://free-wifi.taipei/TPE/OpenDataCFlow.aspx?id=DA040001</CFLOWURL></hotspot><hotspot><AP_ID>DA040003</AP_ID><HOTSPOT_NAME>仁愛院區</HOTSPOT_NAME><AREA>仁愛院區</AREA><ADDRESS>臺北市大安區仁愛路四段10號10樓(西側1028病房前上方)</ADDRESS><HOTSPOT_TYPE>Taipei Free免費無線上網熱點(室內)</HOTSPOT_TYPE><LNG>121.545217</LNG><LAT>25.037513</LAT><STATUS>0</STATUS><PICURL>http://free-wifi.taipei/TPE/OpenData.aspx?id=DA040003</PICURL><FLOWURL>http://free-wifi.taipei/TPE/OpenData2.aspx?id=DA040003</FLOWURL><CFLOWURL>http://free-wifi.taipei/TPE/OpenDataCFlow.aspx?id=DA040003</CFLOWURL></hotspot><hotspot><AP_ID>DA040004</AP_ID><HOTSPOT_NAME>仁愛院區</HOTSPOT_NAME><AREA>仁愛院區</AREA><ADDRESS>臺北市大安區仁愛路四段10號10樓(往西側大門進入護理站前)</ADDRESS><HOTSPOT_TYPE>Taipei Free免費無線上網熱點(室內)</HOTSPOT_TYPE><LNG>121.545213</LNG><LAT>25.037513</LAT><STATUS>0</STATUS><PICURL>http://free-wifi.taipei/TPE/OpenData.aspx?id=DA040004</PICURL><FLOWURL>http://free-wifi.taipei/TPE/OpenData2.aspx?id=DA040004</FLOWURL><CFLOWURL>http://free-wifi.taipei/TPE/OpenDataCFlow.aspx?id=DA040004</CFLOWURL></hotspot><hotspot><AP_ID>DA040005</AP_ID><HOTSPOT_NAME>仁愛院區</HOTSPOT_NAME><AREA>仁愛院區</AREA><ADDRESS>臺北市大安區仁愛路四段10號10樓(東側1025病房前上方)</ADDRESS><HOTSPOT_TYPE>Taipei Free免費無線上網熱點(室內)</HOTSPOT_TYPE><LNG>121.545211</LNG><LAT>25.037513</LAT><STATUS>0</STATUS><PICURL>http://free-wifi.taipei/TPE/OpenData.aspx?id=DA040005</PICURL><FLOWURL>http://free-wifi.taipei/TPE/OpenData2.aspx?id=DA040005</FLOWURL><CFLOWURL>http://free-wifi.taipei/TPE/OpenDataCFlow.aspx?id=DA040005</CFLOWURL></hotspot><hotspot><AP_ID>DA040006</AP_ID><HOTSPOT_NAME>仁愛院區</HOTSPOT_NAME><AREA>仁愛院區</AREA><ADDRESS>臺北市大安區仁愛路四段10號10樓(東側餐飲區中間上方)</ADDRESS><HOTSPOT_TYPE>Taipei Free免費無線上網熱點(室內)</HOTSPOT_TYPE><LNG>121.545211</LNG><LAT>25.037512</LAT><STATUS>0</STATUS><PICURL>http://free-wifi.taipei/TPE/OpenData.aspx?id=DA040006</PICURL><FLOWURL>http://free-wifi.taipei/TPE/OpenData2.aspx?id=DA040006</FLOWURL><CFLOWURL>http://free-wifi.taipei/TPE/OpenDataCFlow.aspx?id=DA040006</CFLOWURL></hotspot><hotspot><AP_ID>DA040007</AP_ID><HOTSPOT_NAME>仁愛院區</HOTSPOT_NAME><AREA>仁愛院區</AREA><ADDRESS>臺北市大安區仁愛路四段10號10樓(東側骨質密度檢查室前上方)</ADDRESS><HOTSPOT_TYPE>Taipei Free免費無線上網熱點(室內)</HOTSPOT_TYPE><LNG>121.545219</LNG><LAT>25.037514</LAT><STATUS>0</STATUS><PICURL>http://free-wifi.taipei/TPE/OpenData.aspx?id=DA040007</PICURL><FLOWURL>http://free-wifi.taipei/TPE/OpenData2.aspx?id=DA040007</FLOWURL><CFLOWURL>http://free-wifi.taipei/TPE/OpenDataCFlow.aspx?id=DA040007</CFLOWURL></hotspot><hotspot><AP_ID>DA040008</AP_ID><HOTSPOT_NAME>仁愛院區</HOTSPOT_NAME><AREA>仁愛院區</AREA><ADDRESS>臺北市大安區仁愛路四段10號11樓(西側護理站旁)</ADDRESS><HOTSPOT_TYPE>Taipei Free免費無線上網熱點(室內)</HOTSPOT_TYPE><LNG>121.545219</LNG><LAT>25.037515</LAT><STATUS>0</STATUS><PICURL>http://free-wifi.taipei/TPE/OpenData.aspx?id=DA040008</PICURL><FLOWURL>http://free-wifi.taipei/TPE/OpenData2.aspx?id=DA040008</FLOWURL><CFLOWURL>http://free-wifi.taipei/TPE/OpenDataCFlow.aspx?id=DA040008</CFLOWURL></hotspot><hotspot><AP_ID>DA040009</AP_ID><HOTSPOT_NAME>仁愛院區</HOTSPOT_NAME><AREA>仁愛院區</AREA><ADDRESS>臺北市大安區仁愛路四段10號11樓(西側大門口右邊走廊中央走道醫師室旁)</ADDRESS><HOTSPOT_TYPE>Taipei Free免費無線上網熱點(室內)</HOTSPOT_TYPE><LNG>121.545219</LNG><LAT>25.037518</LAT><STATUS>0</STATUS><PICURL>http://free-wifi.taipei/TPE/OpenData.aspx?id=DA040009</PICURL><FLOWURL>http://free-wifi.taipei/TPE/OpenData2.aspx?id=DA040009</FLOWURL><CFLOWURL>http://free-wifi.taipei/TPE/OpenDataCFlow.aspx?id=DA040009</CFLOWURL></hotspot><hotspot><AP_ID>DA040010</AP_ID><HOTSPOT_NAME>仁愛院區</HOTSPOT_NAME><AREA>仁愛院區</AREA><ADDRESS>臺北市大安區仁愛路四段10號11樓(西側1160室門口前)</ADDRESS><HOTSPOT_TYPE>Taipei Free免費無線上網熱點(室內)</HOTSPOT_TYPE><LNG>121.544787</LNG><LAT>25.037421</LAT><STATUS>0</STATUS><PICURL>http://free-wifi.taipei/TPE/OpenData.aspx?id=DA040010</PICURL><FLOWURL>http://free-wifi.taipei/TPE/OpenData2.aspx?id=DA040010</FLOWURL><CFLOWURL>http://free-wifi.taipei/TPE/OpenDataCFlow.aspx?id=DA040010</CFLOWURL></hotspot><hotspot><AP_ID>DA040011</AP_ID><HOTSPOT_NAME>仁愛院區</HOTSPOT_NAME><AREA>仁愛院區</AREA><ADDRESS>臺北市大安區仁愛路四段10號11樓(東側胃腸中心休息區旁電話亭)</ADDRESS><HOTSPOT_TYPE>Taipei Free免費無線上網熱點(室內)</HOTSPOT_TYPE><LNG>121.544788</LNG><LAT>25.037421</LAT><STATUS>0</STATUS><PICURL>http://free-wifi.taipei/TPE/OpenData.aspx?id=DA040011</PICURL><FLOWURL>http://free-wifi.taipei/TPE/OpenData2.aspx?id=DA040011</FLOWURL><CFLOWURL>http://free-wifi.taipei/TPE/OpenDataCFlow.aspx?id=DA040011</CFLOWURL></hotspot><hotspot><AP_ID>DA040013</AP_ID><HOTSPOT_NAME>仁愛院區</HOTSPOT_NAME><AREA>仁愛院區</AREA><ADDRESS>臺北市大安區仁愛路四段10號1樓(5號批價櫃台裡上方)</ADDRESS><HOTSPOT_TYPE>Taipei Free免費無線上網熱點(室內)</HOTSPOT_TYPE><LNG>121.544785</LNG><LAT>25.037421</LAT><STATUS>0</STATUS><PICURL>http://free-wifi.taipei/TPE/OpenData.aspx?id=DA040013</PICURL><FLOWURL>http://free-wifi.taipei/TPE/OpenData2.aspx?id=DA040013</FLOWURL><CFLOWURL>http://free-wifi.taipei/TPE/OpenDataCFlow.aspx?id=DA040013</CFLOWURL></hotspot><hotspot><AP_ID>DA040014</AP_ID><HOTSPOT_NAME>仁愛院區</HOTSPOT_NAME><AREA>仁愛院區</AREA><ADDRESS>臺北市大安區仁愛路四段10號1樓(電梯往西側方向之急診室櫃台)</ADDRESS><HOTSPOT_TYPE>Taipei Free免費無線上網熱點(室內)</HOTSPOT_TYPE><LNG>121.544783</LNG><LAT>25.037421</LAT><STATUS>0</STATUS><PICURL>http://free-wifi.taipei/TPE/OpenData.aspx?id=DA040014</PICURL><FLOWURL>http://free-wifi.taipei/TPE/OpenData2.aspx?id=DA040014</FLOWURL><CFLOWURL>http://free-wifi.taipei/TPE/OpenDataCFlow.aspx?id=DA040014</CFLOWURL></hotspot><hotspot><AP_ID>DA040015</AP_ID><HOTSPOT_NAME>仁愛院區</HOTSPOT_NAME><AREA>仁愛院區</AREA><ADDRESS>臺北市大安區仁愛路四段10號1樓(復建科內實習學生室前上方)</ADDRESS><HOTSPOT_TYPE>Taipei Free免費無線上網熱點(室內)</HOTSPOT_TYPE><LNG>121.544781</LNG><LAT>25.037421</LAT><STATUS>0</STATUS><PICURL>http://free-wifi.taipei/TPE/OpenData.aspx?id=DA040015</PICURL><FLOWURL>http://free-wifi.taipei/TPE/OpenData2.aspx?id=DA040015</FLOWURL><CFLOWURL>http://free-wifi.taipei/TPE/OpenDataCFlow.aspx?id=DA040015</CFLOWURL></hotspot><hotspot><AP_ID>DA040016</AP_ID><HOTSPOT_NAME>仁愛院區</HOTSPOT_NAME><AREA>仁愛院區</AREA><ADDRESS>臺北市大安區仁愛路四段10號1樓(電梯靠近大門之電話亭前靠電梯天花板上方)</ADDRESS><HOTSPOT_TYPE>Taipei Free免費無線上網熱點(室內)</HOTSPOT_TYPE><LNG>121.544789</LNG><LAT>25.037421</LAT><STATUS>0</STATUS><PICURL>http://free-wifi.taipei/TPE/OpenData.aspx?id=DA040016</PICURL><FLOWURL>http://free-wifi.taipei/TPE/OpenData2.aspx?id=DA040016</FLOWURL><CFLOWURL>http://free-wifi.taipei/TPE/OpenDataCFlow.aspx?id=DA040016</CFLOWURL></hotspot><hotspot><AP_ID>DA040017</AP_ID><HOTSPOT_NAME>仁愛院區</HOTSPOT_NAME><AREA>仁愛院區</AREA><ADDRESS>臺北市大安區仁愛路四段10號2樓(手扶電梯上來柱子左側上方)</ADDRESS><HOTSPOT_TYPE>Taipei Free免費無線上網熱點(室內)</HOTSPOT_TYPE><LNG>121.544789</LNG><LAT>25.037422</LAT><STATUS>0</STATUS><PICURL>http://free-wifi.taipei/TPE/OpenData.aspx?id=DA040017</PICURL><FLOWURL>http://free-wifi.taipei/TPE/OpenData2.aspx?id=DA040017</FLOWURL><CFLOWURL>http://free-wifi.taipei/TPE/OpenDataCFlow.aspx?id=DA040017</CFLOWURL></hotspot><hotspot><AP_ID>DA040018</AP_ID><HOTSPOT_NAME>仁愛院區</HOTSPOT_NAME><AREA>仁愛院區</AREA><ADDRESS>臺北市大安區仁愛路四段10號2樓(高齡身心科32診上方)</ADDRESS><HOTSPOT_TYPE>Taipei Free免費無線上網熱點(室內)</HOTSPOT_TYPE><LNG>121.544787</LNG><LAT>25.037423</LAT><STATUS>0</STATUS><PICURL>http://free-wifi.taipei/TPE/OpenData.aspx?id=DA040018</PICURL><FLOWURL>http://free-wifi.taipei/TPE/OpenData2.aspx?id=DA040018</FLOWURL><CFLOWURL>http://free-wifi.taipei/TPE/OpenDataCFlow.aspx?id=DA040018</CFLOWURL></hotspot><hotspot><AP_ID>DA040019</AP_ID><HOTSPOT_NAME>仁愛院區</HOTSPOT_NAME><AREA>仁愛院區</AREA><ADDRESS>臺北市大安區仁愛路四段10號2樓(雷射美容醫學門診前上方)</ADDRESS><HOTSPOT_TYPE>Taipei Free免費無線上網熱點(室內)</HOTSPOT_TYPE><LNG>121.544787</LNG><LAT>25.037425</LAT><STATUS>0</STATUS><PICURL>http://free-wifi.taipei/TPE/OpenData.aspx?id=DA040019</PICURL><FLOWURL>http://free-wifi.taipei/TPE/OpenData2.aspx?id=DA040019</FLOWURL><CFLOWURL>http://free-wifi.taipei/TPE/OpenDataCFlow.aspx?id=DA040019</CFLOWURL></hotspot><hotspot><AP_ID>DA040020</AP_ID><HOTSPOT_NAME>仁愛院區</HOTSPOT_NAME><AREA>仁愛院區</AREA><ADDRESS>臺北市大安區仁愛路四段10號2樓(胸腔內科16診前座位區上方)</ADDRESS><HOTSPOT_TYPE>Taipei Free免費無線上網熱點(室內)</HOTSPOT_TYPE><LNG>121.544783</LNG><LAT>25.037425</LAT><STATUS>0</STATUS><PICURL>http://free-wifi.taipei/TPE/OpenData.aspx?id=DA040020</PICURL><FLOWURL>http://free-wifi.taipei/TPE/OpenData2.aspx?id=DA040020</FLOWURL><CFLOWURL>http://free-wifi.taipei/TPE/OpenDataCFlow.aspx?id=DA040020</CFLOWURL></hotspot><hotspot><AP_ID>DA040021</AP_ID><HOTSPOT_NAME>仁愛院區</HOTSPOT_NAME><AREA>仁愛院區</AREA><ADDRESS>臺北市大安區仁愛路四段10號2樓(神經內科3診前座位區上方)</ADDRESS><HOTSPOT_TYPE>Taipei Free免費無線上網熱點(室內)</HOTSPOT_TYPE><LNG>121.544787</LNG><LAT>25.037429</LAT><STATUS>0</STATUS><PICURL>http://free-wifi.taipei/TPE/OpenData.aspx?id=DA040021</PICURL><FLOWURL>http://free-wifi.taipei/TPE/OpenData2.aspx?id=DA040021</FLOWURL><CFLOWURL>http://free-wifi.taipei/TPE/OpenDataCFlow.aspx?id=DA040021</CFLOWURL></hotspot><hotspot><AP_ID>DA040022</AP_ID><HOTSPOT_NAME>仁愛院區</HOTSPOT_NAME><AREA>仁愛院區</AREA><ADDRESS>臺北市大安區仁愛路四段10號2樓(電梯往東側之耳鼻喉科內座位區上方)</ADDRESS><HOTSPOT_TYPE>Taipei Free免費無線上網熱點(室內)</HOTSPOT_TYPE><LNG>121.545171</LNG><LAT>25.037323</LAT><STATUS>0</STATUS><PICURL>http://free-wifi.taipei/TPE/OpenData.aspx?id=DA040022</PICURL><FLOWURL>http://free-wifi.taipei/TPE/OpenData2.aspx?id=DA040022</FLOWURL><CFLOWURL>http://free-wifi.taipei/TPE/OpenDataCFlow.aspx?id=DA040022</CFLOWURL></hotspot><hotspot><AP_ID>DA040023</AP_ID><HOTSPOT_NAME>仁愛院區</HOTSPOT_NAME><AREA>仁愛院區</AREA><ADDRESS>臺北市大安區仁愛路四段10號2樓(電梯往東側之眼科候診內第一診療室門口前)</ADDRESS><HOTSPOT_TYPE>Taipei Free免費無線上網熱點(室內)</HOTSPOT_TYPE><LNG>121.545173</LNG><LAT>25.037323</LAT><STATUS>0</STATUS><PICURL>http://free-wifi.taipei/TPE/OpenData.aspx?id=DA040023</PICURL><FLOWURL>http://free-wifi.taipei/TPE/OpenData2.aspx?id=DA040023</FLOWURL><CFLOWURL>http://free-wifi.taipei/TPE/OpenDataCFlow.aspx?id=DA040023</CFLOWURL></hotspot><hotspot><AP_ID>DA040024</AP_ID><HOTSPOT_NAME>仁愛院區</HOTSPOT_NAME><AREA>仁愛院區</AREA><ADDRESS>臺北市大安區仁愛路四段10號2樓(外科2診前座位區中間上方)</ADDRESS><HOTSPOT_TYPE>Taipei Free免費無線上網熱點(室內)</HOTSPOT_TYPE><LNG>121.545175</LNG><LAT>25.037323</LAT><STATUS>0</STATUS><PICURL>http://free-wifi.taipei/TPE/OpenData.aspx?id=DA040024</PICURL><FLOWURL>http://free-wifi.taipei/TPE/OpenData2.aspx?id=DA040024</FLOWURL><CFLOWURL>http://free-wifi.taipei/TPE/OpenDataCFlow.aspx?id=DA040024</CFLOWURL></hotspot><hotspot><AP_ID>DA040026</AP_ID><HOTSPOT_NAME>仁愛院區</HOTSPOT_NAME><AREA>仁愛院區</AREA><ADDRESS>臺北市大安區仁愛路四段10號3樓(東側電梯右邊座位區上方)</ADDRESS><HOTSPOT_TYPE>Taipei Free免費無線上網熱點(室內)</HOTSPOT_TYPE><LNG>121.545177</LNG><LAT>25.037323</LAT><STATUS>0</STATUS><PICURL>http://free-wifi.taipei/TPE/OpenData.aspx?id=DA040026</PICURL><FLOWURL>http://free-wifi.taipei/TPE/OpenData2.aspx?id=DA040026</FLOWURL><CFLOWURL>http://free-wifi.taipei/TPE/OpenDataCFlow.aspx?id=DA040026</CFLOWURL></hotspot><hotspot><AP_ID>DA040027</AP_ID><HOTSPOT_NAME>仁愛院區</HOTSPOT_NAME><AREA>仁愛院區</AREA><ADDRESS>臺北市大安區仁愛路四段10號5樓(5西540病房前上方)</ADDRESS><HOTSPOT_TYPE>Taipei Free免費無線上網熱點(室內)</HOTSPOT_TYPE><LNG>121.545179</LNG><LAT>25.037323</LAT><STATUS>0</STATUS><PICURL>http://free-wifi.taipei/TPE/OpenData.aspx?id=DA040027</PICURL><FLOWURL>http://free-wifi.taipei/TPE/OpenData2.aspx?id=DA040027</FLOWURL><CFLOWURL>http://free-wifi.taipei/TPE/OpenDataCFlow.aspx?id=DA040027</CFLOWURL></hotspot><hotspot><AP_ID>DA040028</AP_ID><HOTSPOT_NAME>仁愛院區</HOTSPOT_NAME><AREA>仁愛院區</AREA><ADDRESS>臺北市大安區仁愛路四段10號5樓(往西側護理站櫃台前)</ADDRESS><HOTSPOT_TYPE>Taipei Free免費無線上網熱點(室內)</HOTSPOT_TYPE><LNG>121.545171</LNG><LAT>25.037325</LAT><STATUS>0</STATUS><PICURL>http://free-wifi.taipei/TPE/OpenData.aspx?id=DA040028</PICURL><FLOWURL>http://free-wifi.taipei/TPE/OpenData2.aspx?id=DA040028</FLOWURL><CFLOWURL>http://free-wifi.taipei/TPE/OpenDataCFlow.aspx?id=DA040028</CFLOWURL></hotspot><hotspot><AP_ID>DA040029</AP_ID><HOTSPOT_NAME>仁愛院區</HOTSPOT_NAME><AREA>仁愛院區</AREA><ADDRESS>臺北市大安區仁愛路四段10號6樓(護理站旁天花板)</ADDRESS><HOTSPOT_TYPE>Taipei Free免費無線上網熱點(室內)</HOTSPOT_TYPE><LNG>121.545171</LNG><LAT>25.037327</LAT><STATUS>0</STATUS><PICURL>http://free-wifi.taipei/TPE/OpenData.aspx?id=DA040029</PICURL><FLOWURL>http://free-wifi.taipei/TPE/OpenData2.aspx?id=DA040029</FLOWURL><CFLOWURL>http://free-wifi.taipei/TPE/OpenDataCFlow.aspx?id=DA040029</CFLOWURL></hotspot><hotspot><AP_ID>DA040030</AP_ID><HOTSPOT_NAME>仁愛院區</HOTSPOT_NAME><AREA>仁愛院區</AREA><ADDRESS>臺北市大安區仁愛路四段10號6樓(630病房旁天花板)</ADDRESS><HOTSPOT_TYPE>Taipei Free免費無線上網熱點(室內)</HOTSPOT_TYPE><LNG>121.545171</LNG><LAT>25.037329</LAT><STATUS>0</STATUS><PICURL>http://free-wifi.taipei/TPE/OpenData.aspx?id=DA040030</PICURL><FLOWURL>http://free-wifi.taipei/TPE/OpenData2.aspx?id=DA040030</FLOWURL><CFLOWURL>http://free-wifi.taipei/TPE/OpenDataCFlow.aspx?id=DA040030</CFLOWURL></hotspot><hotspot><AP_ID>DA040031</AP_ID><HOTSPOT_NAME>仁愛院區</HOTSPOT_NAME><AREA>仁愛院區</AREA><ADDRESS>臺北市大安區仁愛路四段10號6樓(6東共同檢查室暨會談室前上方)</ADDRESS><HOTSPOT_TYPE>Taipei Free免費無線上網熱點(室內)</HOTSPOT_TYPE><LNG>121.545171</LNG><LAT>25.037321</LAT><STATUS>0</STATUS><PICURL>http://free-wifi.taipei/TPE/OpenData.aspx?id=DA040031</PICURL><FLOWURL>http://free-wifi.taipei/TPE/OpenData2.aspx?id=DA040031</FLOWURL><CFLOWURL>http://free-wifi.taipei/TPE/OpenDataCFlow.aspx?id=DA040031</CFLOWURL></hotspot><hotspot><AP_ID>DA040032</AP_ID><HOTSPOT_NAME>仁愛院區</HOTSPOT_NAME><AREA>仁愛院區</AREA><ADDRESS>臺北市大安區仁愛路四段10號6樓(6東627病房與護理站間上方)</ADDRESS><HOTSPOT_TYPE>Taipei Free免費